stop_id,stop_name,stop_lat,stop_lon,stop_desc
1,105-A 105-B,-27.446218000007995,-58.78309599999984,105-A 105-B
2,108 AB,-27.473599000008015,-58.85256199999986,108 AB
3,108 AB,-27.468834000008027,-58.84929099999987,108 AB
4,108 AB,-27.47543000000801,-58.84991599999987,108 AB
5,108 AB,-27.47511500000801,-58.85246099999988,108 AB
6,104 B,-27.494437000008027,-58.840885999999855,104 B
7,104 B,-27.494270000008022,-58.841043999999854,104 B
8,102 C,-27.464412000008025,-58.83404099999986,102 C
9,108 AB,-27.473810000008022,-58.850051999999856,108 AB
10,108 AB,-27.470886000008008,-58.84976599999988,108 AB
11,104 B,-27.470206000008016,-58.84561899999987,104 B
12,103 A - 104 A - 104 C - 104 D - 102 A - 102 C - 108 AB - 110 A - 110 C- SANTA CATALINA,-27.469856000008036,-58.83825099999986,103 A - 104 A - 104 C - 104 D - 102 A - 102 C - 108 AB - 110 A - 110 C- SANTA CATALINA
13,104 A,-27.463037000008008,-58.82605699999986,104 A
14,104 B,-27.47489000000802,-58.84552399999988,104 B
15,103 B - 103 C - 105 C - 106 ABC,-27.462554000008016,-58.83236099999986,103 B - 103 C - 105 C - 106 ABC
16,101 BC- 102 AB - 106 ABC - 108 C,-27.46674300000801,-58.83437299999986,101 BC- 102 AB - 106 ABC - 108 C
17,104 AB - 108 AB,-27.475992000008016,-58.845890999999874,104 AB - 108 AB
18,104 B,-27.46821900000802,-58.84442399999988,104 B
19,103 D - 104 AB - 105 C - 108 C - 109 AB,-27.46598100000803,-58.82910199999986,103 D - 104 AB - 105 C - 108 C - 109 AB
20,105-A 105-B 105-C-PERICHON 105-C-250VIV 102-A 104-B,-27.46932513274597,-58.830375342625416,105-A 105-B 105-C-PERICHON 105-C-250VIV 102-A 104-B
21,105-A 105-B 105-C-250VIV 105-C-PERICHON 102-A 101-B 101-C,-27.469815557945516,-58.825767056114415,105-A 105-B 105-C-250VIV 105-C-PERICHON 102-A 101-B 101-C
22,105-A 105-B 102-A 101-B 101-C,-27.470136081945167,-58.822353861306304,105-A 105-B 102-A 101-B 101-C
23,105-A 105-B 102-A 101-B 101-C,-27.470352586444957,-58.820198706301134,105-A 105-B 102-A 101-B 101-C
24,105-A 105-B 108-A-B 101-B 101-C,-27.470725162044573,-58.81645492929222,105-A 105-B 108-A-B 101-B 101-C
25,105-A 108-A-B 101-B 101-C,-27.47107083174428,-58.81334440498478,105-A 108-A-B 101-B 101-C
26,105-A 101-B 101-C,-27.47168855371579,-58.81101471725746,105-A 101-B 101-C
27,105-A 101-B 101-C 110-A,-27.472283465884992,-58.808440831507376,105-A 101-B 101-C 110-A
28,105-A,-27.471902232743524,-58.80590370576701,105-A
29,105-A,-27.469030508843552,-58.805034083265305,105-A
30,105-A,-27.468933614043227,-58.80167310775734,105-A
31,105-A 105-B 105-C-250VIV 105-C-PERICHON 109-A 109-B-YECOHA,-27.468980323517503,-58.79893222621126,105-A 105-B 105-C-250VIV 105-C-PERICHON 109-A 109-B-YECOHA
32,105-A 105-B 105-C-250VIV 105-C-PERICHON 109-A 109-B-YECOHA,-27.468594746417523,-58.7973916894932,105-A 105-B 105-C-250VIV 105-C-PERICHON 109-A 109-B-YECOHA
33,105-A 105-B 105-C-250VIV 105-C-PERICHON 109-A 109-B-YECOHA,-27.468179410442648,-58.79560712434302,105-A 105-B 105-C-250VIV 105-C-PERICHON 109-A 109-B-YECOHA
34,105-A,-27.456559578041304,-58.77714262990064,105-A
35,105-A 105-B 105-C-250VIV 105-C-PERICHON 109-A 109-B-YECOHA,-27.46743478851734,-58.79272433015977,105-A 105-B 105-C-250VIV 105-C-PERICHON 109-A 109-B-YECOHA
36,105-A 105-B 105-C-250VIV 105-C-PERICHON 109-A 109-B-YECOHA,-27.46703780192285,-58.791086430848345,105-A 105-B 105-C-250VIV 105-C-PERICHON 109-A 109-B-YECOHA
37,105-A 105-C-250VIV 105-C-PERICHON 109-A 109-B-YECOHA,-27.466280296635567,-58.78781674996501,105-A 105-C-250VIV 105-C-PERICHON 109-A 109-B-YECOHA
38,105-A 105-C-250VIV 105-C-PERICHON 109-A 109-B-YECOHA 110-A,-27.465789123486168,-58.785877484491074,105-A 105-C-250VIV 105-C-PERICHON 109-A 109-B-YECOHA 110-A
39,105-A 105-C-250VIV 105-C-PERICHON 109-A 109-B-YECOHA,-27.465238319979782,-58.78374372752939,105-A 105-C-250VIV 105-C-PERICHON 109-A 109-B-YECOHA
40,105-A 105-C-250VIV 105-C-PERICHON 109-A 109-B-YECOHA 110-A,-27.464961316857146,-58.78265736627037,105-A 105-C-250VIV 105-C-PERICHON 109-A 109-B-YECOHA 110-A
41,105-A 105-C-250VIV 105-C-PERICHON 109-A 109-B-YECOHA,-27.46440177642045,-58.78040413949006,105-A 105-C-250VIV 105-C-PERICHON 109-A 109-B-YECOHA
42,105-A 105-C-250VIV 105-C-PERICHON,-27.46383007732937,-58.77809455118651,105-A 105-C-250VIV 105-C-PERICHON
43,105-A 105-C-250VIV 105-C-PERICHON,-27.463368952340936,-58.77632463989784,105-A 105-C-250VIV 105-C-PERICHON
44,105-A,-27.45830862984116,-58.77646344419882,105-A
45,105-A 110-A,-27.461441869040904,-58.77520020759543,105-A 110-A
46,105-A,-27.45844684734112,-58.77619346309815,105-A
47,105-A 110-A,-27.45666912954125,-58.776852615999935,105-A 110-A
48,105-A 110-A,-27.454819578741404,-58.777540854101794,105-A 110-A
49,105-A,-27.45010207604173,-58.779057810905975,105-A
50,105-A,-27.4489553478418,-58.77946207010708,105-A
51,105-A,-27.44680790424196,-58.780284670109296,105-A
52,105-A,-27.446188649241847,-58.77856059640527,105-A
53,105-A,-27.445551876041858,-58.77873670020579,105-A
54,105-A,-27.461310776040936,-58.77542266329598,105-A
55,105-A,-27.444161653641984,-58.779355619907435,105-A
56,105-A 105-C-250VIV 105-C-PERICHON 110-A,-27.46274480709176,-58.7748694022637,105-A 105-C-250VIV 105-C-PERICHON 110-A
57,109-A 109-B-YECOHA 104-C,-27.50992254554436,-58.82958979071874,109-A 109-B-YECOHA 104-C
58,109-A 109-B-YECOHA 103-B 103-D 103-C-ESPERANZA-PUERTO,-27.504859624542807,-58.811432995776165,109-A 109-B-YECOHA 103-B 103-D 103-C-ESPERANZA-PUERTO
59,109-A 109-B-YECOHA,-27.466038910186786,-58.83029197370624,109-A 109-B-YECOHA
60,109-A 109-B-YECOHA 102-B 102-C 103-A 103-B 103-D 103-C-ESPERANZA-PUERTO 106-A 106-B 106-C,-27.473047619845904,-58.83107824902664,109-A 109-B-YECOHA 102-B 102-C 103-A 103-B 103-D 103-C-ESPERANZA-PUERTO 106-A 106-B 106-C
61,109-A 109-B-YECOHA 102-C 102-B 103-D 103-A 103-C-ESPERANZA-PUERTO 103-B 106-A 106-B 106-C,-27.47513915614584,-58.83130724262693,109-A 109-B-YECOHA 102-C 102-B 103-D 103-A 103-C-ESPERANZA-PUERTO 103-B 106-A 106-B 106-C
62,109-A 109-B-YECOHA 103-B 103-D 103-C-ESPERANZA-PUERTO,-27.476850573045724,-58.830763676225445,109-A 109-B-YECOHA 103-B 103-D 103-C-ESPERANZA-PUERTO
63,109-A 109-B-YECOHA 103-D 103-C-ESPERANZA-PUERTO 103-B,-27.4778696448456,-58.830048616023625,109-A 109-B-YECOHA 103-D 103-C-ESPERANZA-PUERTO 103-B
64,109-A 109-B-YECOHA 103-D 103-B 103-C-ESPERANZA-PUERTO,-27.47944594554543,-58.82879887432047,109-A 109-B-YECOHA 103-D 103-B 103-C-ESPERANZA-PUERTO
65,109-A 109-B-YECOHA 103-B 103-D 103-C-ESPERANZA-PUERTO 110-A,-27.48253543124509,-58.8263536217143,109-A 109-B-YECOHA 103-B 103-D 103-C-ESPERANZA-PUERTO 110-A
66,109-A 109-B-YECOHA 103-B 103-D 103-C-ESPERANZA-PUERTO,-27.50194934394306,-58.81269363407954,109-A 109-B-YECOHA 103-B 103-D 103-C-ESPERANZA-PUERTO
67,109-A 109-B-YECOHA 103-D 103-B 103-C-ESPERANZA-PUERTO,-27.485221160644773,-58.824219337708925,109-A 109-B-YECOHA 103-D 103-B 103-C-ESPERANZA-PUERTO
68,109-A 109-B-YECOHA 103-B 103-D 103-C-ESPERANZA-PUERTO 110-B,-27.49005290874424,-58.82049358169949,109-A 109-B-YECOHA 103-B 103-D 103-C-ESPERANZA-PUERTO 110-B
69,109-A 109-B-YECOHA 103-B 103-D 103-C-ESPERANZA-PUERTO,-27.49220638734404,-58.81933034119648,109-A 109-B-YECOHA 103-B 103-D 103-C-ESPERANZA-PUERTO
70,109-A 109-B-YECOHA 103-B 103-D 103-C-ESPERANZA-PUERTO,-27.494065600673277,-58.81811725135496,109-A 109-B-YECOHA 103-B 103-D 103-C-ESPERANZA-PUERTO
71,109-A 109-B-YECOHA 103-D 103-B 103-C-ESPERANZA-PUERTO,-27.49560801514372,-58.81709740219076,109-A 109-B-YECOHA 103-D 103-B 103-C-ESPERANZA-PUERTO
72,109-A 109-B-YECOHA 103-B 103-D 103-C-ESPERANZA-PUERTO 110-B,-27.49803357024346,-58.81540870008645,109-A 109-B-YECOHA 103-B 103-D 103-C-ESPERANZA-PUERTO 110-B
73,109-A 109-B-YECOHA 103-B 103-D 103-C-ESPERANZA-PUERTO,-27.49979988864328,-58.814172453183296,109-A 109-B-YECOHA 103-B 103-D 103-C-ESPERANZA-PUERTO
74,109-A 109-B-YECOHA 103-B 103-D 103-C-ESPERANZA-PUERTO,-27.502002820443057,-58.81290837838004,109-A 109-B-YECOHA 103-B 103-D 103-C-ESPERANZA-PUERTO
75,109-A 109-B-YECOHA 103-B 103-D 103-C-ESPERANZA-PUERTO,-27.50494989764284,-58.811644219776674,109-A 109-B-YECOHA 103-B 103-D 103-C-ESPERANZA-PUERTO
76,109-A 109-B-YECOHA 103-B 103-D 103-C-ESPERANZA-PUERTO,-27.499770803443248,-58.81398729698287,109-A 109-B-YECOHA 103-B 103-D 103-C-ESPERANZA-PUERTO
77,109-A 109-B-YECOHA 103-B 103-D 103-C-ESPERANZA-PUERTO,-27.507592711742653,-58.81069848967412,109-A 109-B-YECOHA 103-B 103-D 103-C-ESPERANZA-PUERTO
78,109-A 109-B-YECOHA 104-C 105-C-250VIV 105-C-PERICHON,-27.46716199058112,-58.817562341709646,109-A 109-B-YECOHA 104-C 105-C-250VIV 105-C-PERICHON
79,109-A 109-B-YECOHA,-27.463614961241017,-58.777180432199856,109-A 109-B-YECOHA
80,109-A 109-B-YECOHA 103-A,-27.508891780616253,-58.82005363078304,109-A 109-B-YECOHA 103-A
81,109-A 109-B-YECOHA,-27.462606198484504,-58.773196779030656,109-A 109-B-YECOHA
82,105-C-PERICHON 109-A 109-B-YECOHA,-27.459194848439985,-58.76499012747147,105-C-PERICHON 109-A 109-B-YECOHA
83,105-C-PERICHON 109-A 109-B-YECOHA,-27.45196604363927,-58.755357225249526,105-C-PERICHON 109-A 109-B-YECOHA
84,109-A,-27.44863524293892,-58.750394468038174,109-A
85,109-A,-27.448912516338705,-58.74830150683318,109-A
86,109-A,-27.449221473338454,-58.74621474822818,109-A
87,109-A,-27.45031464113768,-58.73897211331087,109-A
88,109-A,-27.45115610033716,-58.7341421253993,109-A
89,109-A,-27.451528843636893,-58.73145807229289,109-A
90,109-A,-27.451815337036592,-58.728861358686686,109-A
91,109-A,-27.45263911053608,-58.72439589977598,109-A
92,109-A,-27.45326490333584,-58.72221853277074,109-A
93,109-A,-27.45309986373587,-58.72220780397074,109-A
94,109-A,-27.45253903053611,-58.724371256975935,109-A
95,109-A,-27.45171534093658,-58.72879346528655,109-A
96,109-A,-27.45142214193686,-58.73138305429272,109-A
97,109-A,-27.45107144313715,-58.734079680199166,109-A
98,109-A,-27.45022788843768,-58.738894832110695,109-A
99,109-A,-27.44912910473845,-58.746149117928056,109-A
100,109-A,-27.448849652038664,-58.74813068363278,109-A
101,109-A,-27.448551256338888,-58.75026278833786,109-A
102,109-A 109-B-YECOHA,-27.45358383483948,-58.757890906955325,109-A 109-B-YECOHA
103,109-A 109-B-YECOHA,-27.46246580731368,-58.77325519717032,109-A 109-B-YECOHA
104,109-A 109-B-YECOHA,-27.46298644032029,-58.77543690771078,109-A 109-B-YECOHA
105,109-A 109-B-YECOHA,-27.46342418914103,-58.77720507499994,109-A 109-B-YECOHA
106,102-C 102-A 106-B 106-A,-27.48065495134271,-58.80067188935352,102-C 102-A 106-B 106-A
107,102-C 102-A 106-B 106-A,-27.480215907242872,-58.80237299665763,102-C 102-A 106-B 106-A
108,102-C 102-A 106-B 106-A,-27.47962121114308,-58.80436872776245,102-C 102-A 106-B 106-A
109,102-C 102-A 106-B 106-A,-27.47930144154328,-58.80622481646688,102-C 102-A 106-B 106-A
110,102-C 102-A 106-C 106-B 106-A,-27.47888318464364,-58.80967799287513,102-C 102-A 106-C 106-B 106-A
111,102-C 102-A 106-C 106-B 106-A,-27.47858269334388,-58.81219532988114,102-C 102-A 106-C 106-B 106-A
112,102-C 102-A 102-B 108-C 106-A 106-B 106-C,-27.478201652044177,-58.815149699288206,102-C 102-A 102-B 108-C 106-A 106-B 106-C
113,102-C 102-B 102-A 106-A 106-B 106-C 108-C,-27.47792672564441,-58.81739730669358,102-C 102-B 102-A 106-A 106-B 106-C 108-C
114,102-C 102-B 102-A 106-A 106-B 106-C,-27.477530932144717,-58.82055242270113,102-C 102-B 102-A 106-A 106-B 106-C
115,102-C 102-A 102-B 106-C 106-B 106-A,-27.47726220834493,-58.82261596340605,102-C 102-A 102-B 106-C 106-B 106-A
116,102-C 102-B 102-A 106-A 106-B 106-C,-27.476958867245187,-58.82518853711219,102-C 102-B 102-A 106-A 106-B 106-C
117,102-C 102-A 102-B 106-B 106-C 106-A,-27.47666692554543,-58.82762389911801,102-C 102-A 102-B 106-B 106-C 106-A
118,102-C 102-A 102-B,-27.475858658646075,-58.83413244693355,102-C 102-A 102-B
119,102-C 102-B 102-A 104-C 104-D,-27.47550603204632,-58.8365776157394,102-C 102-B 102-A 104-C 104-D
120,102-C,-27.490984222034037,-58.718365120456696,102-C
121,102-C,-27.462232198646547,-58.833878056134544,102-C
122,102-C 102-A 102-B 108-C 106-A 106-B 106-C 101-B 101-C,-27.46681989561664,-58.83267287015457,102-C 102-A 102-B 108-C 106-A 106-B 106-C 101-B 101-C
123,102-C 102-B 106-A 106-B 106-C,-27.47672878404568,-58.83003218752373,102-C 102-B 106-A 106-B 106-C
124,102-C,-27.490083502734045,-58.71819882345642,102-C
125,102-C 102-B 106-A 106-B 106-C,-27.477052493145383,-58.82734880501732,102-C 102-B 106-A 106-B 106-C
126,102-C 102-B 106-A 106-B 106-C,-27.47737871684514,-58.824953257111595,102-C 102-B 106-A 106-B 106-C
127,102-C 102-B 106-A 106-B 106-C,-27.4776880090449,-58.82237355880543,102-C 102-B 106-A 106-B 106-C
128,102-C 102-A 102-B 108-C 106-A 106-B 106-C,-27.478041976844604,-58.81955296449869,102-C 102-A 102-B 108-C 106-A 106-B 106-C
129,102-C 102-B 102-A 108-C 106-A 106-B 106-C,-27.478363087544373,-58.81708290149279,102-C 102-B 102-A 108-C 106-A 106-B 106-C
130,102-C 102-A 106-C 106-B 106-A,-27.478651341144097,-58.814483924786586,102-C 102-A 106-C 106-B 106-A
131,102-C 102-A 106-A 106-B 106-C,-27.478941857943862,-58.8122374070812,102-C 102-A 106-A 106-B 106-C
132,102-C 102-A 106-A 106-B 106-C,-27.47926833304361,-58.809683524975085,102-C 102-A 106-A 106-B 106-C
133,102-C 102-A 106-B 106-A,-27.479550635543397,-58.80739333756964,102-C 102-A 106-B 106-A
134,102-C 102-A 106-A 106-B,-27.48002773344308,-58.80429932566222,102-C 102-A 106-A 106-B
135,102-C,-27.4895395172345,-58.72240000096648,102-C
136,102-C 102-A 106-A 106-B,-27.480684958542813,-58.80201810685672,102-C 102-A 106-A 106-B
137,102-C 102-A 106-B 106-A,-27.48118099954264,-58.80025145315248,102-C 102-A 106-B 106-A
138,102-C 102-A 106-A,-27.4817830716424,-58.798175926247474,102-C 102-A 106-A
139,102-C 102-A 106-A,-27.482661495142096,-58.79520873254032,102-C 102-A 106-A
140,102-C 102-A 106-A,-27.4834847656418,-58.79241822933358,102-C 102-A 106-A
141,102-C,-27.48377176194165,-58.7910870992304,102-C
142,102-C 102-A 106-A,-27.484069151941323,-58.78789761752278,102-C 102-A 106-A
143,102-C 102-A 106-A,-27.48427584964104,-58.78514080951621,102-C 102-A 106-A
144,102-C,-27.484651778040444,-58.779361822502445,102-C
145,102-C,-27.485295675840018,-58.7751707032924,102-C
146,102-C,-27.48972232653471,-58.724485418571405,102-C
147,102-C,-27.486267725139403,-58.76944326507868,102-C
148,102-C,-27.487617043838927,-58.76520587766844,102-C
149,102-C,-27.48847082453862,-58.76247329346186,102-C
150,102-C,-27.490467310037907,-58.755995591046194,102-C
151,102-C,-27.491112046037493,-58.752214514437135,102-C
152,102-C,-27.49156450113718,-58.749428537530456,102-C
153,102-C,-27.492721622936244,-58.74059417920931,102-C
154,102-C,-27.492204208035947,-58.73758700380221,102-C
155,102-C,-27.49042607113527,-58.73013834168477,102-C
156,102-C,-27.48986046023471,-58.72447007967137,102-C
157,102-C,-27.490270083835263,-58.73019726648492,102-C
158,102-C,-27.489635573834345,-58.72111404946342,102-C
159,102-C,-27.490495808534263,-58.720508373061854,102-C
160,102-C,-27.49172057223425,-58.72074910136229,102-C
161,102-C,-27.492378886934244,-58.720849935662415,102-C
162,102-C,-27.49267602533411,-58.71965333515954,102-C
163,102-C,-27.492791025034023,-58.71883635105759,102-C
164,102-C,-27.493644219033975,-58.71899736745787,102-C
165,102-C,-27.492299594136067,-58.738725601504925,102-C
166,103-D,-27.580618618135237,-58.763451545352645,103-D
167,103-D,-27.566733995535508,-58.76102565494859,103-D
168,103-D 103-B 103-C-ESPERANZA-PUERTO,-27.51176103214236,-58.80941664517056,103-D 103-B 103-C-ESPERANZA-PUERTO
169,103-D 103-B 103-C-ESPERANZA-PUERTO,-27.513808395842076,-58.80736592876544,103-D 103-B 103-C-ESPERANZA-PUERTO
170,103-D 103-B 103-C-ESPERANZA-PUERTO,-27.51491933324192,-58.80610922996231,103-D 103-B 103-C-ESPERANZA-PUERTO
171,103-D 103-B 103-C-ESPERANZA-PUERTO,-27.52185552574106,-58.799962026046856,103-D 103-B 103-C-ESPERANZA-PUERTO
172,103-D 103-C-ESPERANZA-PUERTO,-27.525381121940608,-58.79655402803832,103-D 103-C-ESPERANZA-PUERTO
173,103-D 103-C-ESPERANZA-PUERTO 103-C-ESPERANZA-MONTAÃ‘A,-27.52937643984015,-58.79341684923037,103-D 103-C-ESPERANZA-PUERTO 103-C-ESPERANZA-MONTAÃ‘A
174,103-D,-27.530967073639903,-58.791517090925645,103-D
175,103-D,-27.531814400239625,-58.78883588771915,103-D
176,103-D,-27.53267865823922,-58.785451023711005,103-D
177,103-D,-27.569896655235205,-58.758932106943206,103-D
178,103-D,-27.532018415737863,-58.771426423277696,103-D
179,103-D,-27.53019300483753,-58.76748726406855,103-D
180,103-D,-27.530221335737057,-58.76250782685669,103-D
181,103-D,-27.53228529553676,-58.76042341515147,103-D
182,103-D,-27.533875510236555,-58.758948954547776,103-D
183,103-D,-27.53847583393601,-58.75515346123814,103-D
184,103-D,-27.54447484583548,-58.752370082630776,103-D
185,103-D,-27.559318609634584,-58.74915478452122,103-D
186,103-D,-27.56554368153387,-58.744382464109066,103-D
187,103-D,-27.56706407493372,-58.74323640650613,103-D
188,103-D,-27.57375383943505,-58.75895968344278,103-D
189,103-D,-27.569930099033485,-58.74217760450325,103-D
190,103-D,-27.572038650633367,-58.74164719770171,103-D
191,103-D,-27.57434702673324,-58.7411815829003,103-D
192,103-D,-27.57732947553308,-58.74086206479917,103-D
193,103-D,-27.580554831832945,-58.7406708735983,103-D
194,103-D,-27.58246037373287,-58.74078319109831,103-D
195,103-D,-27.58210825003311,-58.74293985480351,103-D
196,103-D,-27.5817567968334,-58.745588368509885,103-D
197,103-D,-27.5813774318338,-58.74948268461922,103-D
198,103-D,-27.581237286434057,-58.75192525502506,103-D
199,103-D,-27.576859418434935,-58.75894652384237,103-D
200,103-D,-27.58122689283415,-58.75292001922744,103-D
201,103-D,-27.581373240934408,-58.755467447233485,103-D
202,103-D,-27.58139930863452,-58.75660193783621,103-D
203,103-D,-27.581487673751504,-58.758769790378075,103-D
204,103-D,-27.581228988334857,-58.75975261144373,103-D
205,103-D,-27.57889152703485,-58.75894476364209,103-D
206,103-D,-27.581389217536607,-58.758728494601954,103-D
207,103-D,-27.581510620334505,-58.75667519573634,103-D
208,103-D,-27.581482540934392,-58.755495107533534,103-D
209,103-D,-27.581328565334136,-58.75278465152709,103-D
210,103-D,-27.581476589733825,-58.74961947721954,103-D
211,103-D,-27.578543342735355,-58.76369135155345,103-D
212,103-D,-27.58189174543341,-58.74572884921021,103-D
213,103-D,-27.582085367433187,-58.74374284110543,103-D
214,103-D,-27.58219944513312,-58.742953433403535,103-D
215,103-D,-27.58240983083297,-58.741735040000606,103-D
216,103-D,-27.582571433932863,-58.74076449939828,103-D
217,103-D,-27.58197749233285,-58.74040106009749,103-D
218,103-D,-27.580926736932895,-58.74044037119771,103-D
219,103-D,-27.57727666953305,-58.740643213298654,103-D
220,103-D,-27.5740584378332,-58.74089944809966,103-D
221,103-D,-27.56969951293349,-58.741975097702806,103-D
222,103-D,-27.5591708366346,-58.74892553952069,103-D
223,103-D,-27.54437585553547,-58.752184172030326,103-D
224,103-D,-27.53823250733599,-58.7549933668378,103-D
225,103-D,-27.533704938436543,-58.75876966564738,103-D
226,103-D,-27.53216970903675,-58.76016189985086,103-D
227,103-D,-27.53018529353701,-58.76228017435616,103-D
228,103-D,-27.530237680437608,-58.76809394627,103-D
229,103-D,-27.53175455343788,-58.77129197757742,103-D
230,103-D,-27.532880410639077,-58.783871286407226,103-D
231,103-D,-27.57167219383563,-58.76398027575502,103-D
232,103-D,-27.53158917843961,-58.788815268219125,103-D
233,103-D 103-C-ESPERANZA-PUERTO 103-C-ESPERANZA-MONTAÃ‘A,-27.52922523034013,-58.79324451732997,103-D 103-C-ESPERANZA-PUERTO 103-C-ESPERANZA-MONTAÃ‘A
234,103-D 103-C-ESPERANZA-MONTAÃ‘A 103-C-ESPERANZA-PUERTO,-27.525225805240574,-58.79626904323766,103-D 103-C-ESPERANZA-MONTAÃ‘A 103-C-ESPERANZA-PUERTO
235,103-D 103-B 103-C-ESPERANZA-PUERTO,-27.52173977174106,-58.799722387346286,103-D 103-B 103-C-ESPERANZA-PUERTO
236,103-D 103-B 103-C-ESPERANZA-PUERTO,-27.517220752441546,-58.80322317305518,103-D 103-B 103-C-ESPERANZA-PUERTO
237,103-D 103-B 103-C-ESPERANZA-PUERTO,-27.514758903641923,-58.80596271436199,103-D 103-B 103-C-ESPERANZA-PUERTO
238,103-D 103-B 103-C-ESPERANZA-PUERTO,-27.513636734442084,-58.80723776946514,103-D 103-B 103-C-ESPERANZA-PUERTO
239,103-D 103-B 103-C-ESPERANZA-PUERTO,-27.511618875042352,-58.80929787357028,103-D 103-B 103-C-ESPERANZA-PUERTO
240,103-D,-27.566278271435863,-58.764295938256446,103-D
241,103-D 103-B 103-C-ESPERANZA-PUERTO,-27.50901595884256,-58.81026221157289,103-D 103-B 103-C-ESPERANZA-PUERTO
242,103-D 103-B 103-C-ESPERANZA-PUERTO,-27.50371867984293,-58.8119698566776,103-D 103-B 103-C-ESPERANZA-PUERTO
243,103-D 103-B 103-C-ESPERANZA-PUERTO 109-A 109-B-YECOHA,-27.496212266543623,-58.816390472489,103-D 103-B 103-C-ESPERANZA-PUERTO 109-A 109-B-YECOHA
244,103-D,-27.56367451703596,-58.76425134655665,103-D
245,103-D 103-B 103-C-ESPERANZA-PUERTO 109-A 109-B-YECOHA,-27.48730128764603,-58.82234979214369,103-D 103-B 103-C-ESPERANZA-PUERTO 109-A 109-B-YECOHA
246,103-D 103-A 103-C-ESPERANZA-PUERTO 103-B 106-B 102-B,-27.47636572323449,-58.8300624054141,103-D 103-A 103-C-ESPERANZA-PUERTO 103-B 106-B 102-B
247,103-D 103-A 103-B 103-C-ESPERANZA-PUERTO,-27.47368070494575,-58.82977218092347,103-D 103-A 103-B 103-C-ESPERANZA-PUERTO
248,103-D 103-B 103-A 103-C-ESPERANZA-PUERTO 101-B 101-C,-27.471488753445808,-58.82953229082317,103-D 103-B 103-A 103-C-ESPERANZA-PUERTO 101-B 101-C
249,103-D,-27.563825810435752,-58.76231638415203,103-D
250,103-D 103-A 103-C-ESPERANZA-PUERTO 103-B,-27.469192531045863,-58.82923800222273,103-D 103-A 103-C-ESPERANZA-PUERTO 103-B
251,103-D 103-C-ESPERANZA-PUERTO 103-A 103-B 104-B,-27.466899912945927,-58.82897246352237,103-D 103-C-ESPERANZA-PUERTO 103-A 103-B 104-B
252,103-D 103-A 103-B 103-C-ESPERANZA-PUERTO 105-C-250VIV 105-C-PERICHON 108-C 104-A 104-B 104-C 104-D,-27.465840261898624,-58.83044667654005,103-D 103-A 103-B 103-C-ESPERANZA-PUERTO 105-C-250VIV 105-C-PERICHON 108-C 104-A 104-B 104-C 104-D
253,103-A 103-B 103-C-ESPERANZA-PUERTO 103-D 110-A,-27.468221985224773,-58.83932205573592,103-A 103-B 103-C-ESPERANZA-PUERTO 103-D 110-A
254,103-D,-27.564255885835653,-58.76145874784993,103-D
255,103-D 103-B 103-C-ESPERANZA-PUERTO 109-A 109-B-YECOHA 110-B,-27.487336750804964,-58.82256107810433,103-D 103-B 103-C-ESPERANZA-PUERTO 109-A 109-B-YECOHA 110-B
256,103-D,-27.56570955933558,-58.761145180849006,103-D
257,103-D 103-B 103-C-ESPERANZA-PUERTO,-27.50389503514293,-58.81214294297798,103-D 103-B 103-C-ESPERANZA-PUERTO
258,103-D 103-B 103-C-ESPERANZA-PUERTO,-27.50909047394256,-58.8104384829733,103-D 103-B 103-C-ESPERANZA-PUERTO
259,103-D,-27.58174330193353,-58.746880103612966,103-D
260,108-C,-27.511975273640772,-58.79323311793205,108-C
261,108-C,-27.510290762541615,-58.80121813805124,108-C
262,108-C 108-A-B,-27.50592630554152,-58.79842922734514,108-C 108-A-B
263,108-C,-27.510116670340835,-58.79306958703188,108-C
264,108-C,-27.50428437454209,-58.803654421957766,108-C
265,108-C,-27.50415864594221,-58.804868037760656,108-C
266,108-C,-27.50407834734232,-58.80614661326371,108-C
267,108-C,-27.503713231642504,-58.807667174367374,108-C
268,108-C,-27.501824453542746,-58.80940088717171,108-C
269,108-C,-27.50022744954292,-58.81070821267501,108-C
270,108-C,-27.49749226694324,-58.81285741648043,108-C
271,108-C,-27.49577950884341,-58.81424621398397,108-C
272,108-C,-27.4942576905436,-58.81543376198695,108-C
273,108-C,-27.493550676943677,-58.815967102488315,108-C
274,108-C,-27.49232817634383,-58.81700444689094,108-C
275,108-C,-27.489626772843884,-58.81662214829036,108-C
276,108-C,-27.48880140684393,-58.816483008690106,108-C
277,108-C 108-A-B 102-B,-27.485304895943997,-58.81587087828906,108-C 108-A-B 102-B
278,108-C 108-A-B 102-B,-27.484001258544,-58.81557239868852,108-C 108-A-B 102-B
279,108-C 108-A-B 102-B,-27.48051614694408,-58.81497091328751,108-C 108-A-B 102-B
280,108-C,-27.47748642424464,-58.81964214799897,108-C
281,108-C,-27.476259229844665,-58.81946537359869,108-C
282,108-C,-27.474764317344693,-58.81920687569826,108-C
283,108-C,-27.472857769644747,-58.81881577609756,108-C
284,108-C,-27.469866687544805,-58.81843783609702,108-C
285,108-C,-27.468869827844955,-58.819575847099834,108-C
286,108-C,-27.46732398054268,-58.82136116951333,108-C
287,108-C 105-C-PERICHON 105-C-250VIV 109-A 109-B-YECOHA,-27.46647872191304,-58.82351176938247,108-C 105-C-PERICHON 105-C-250VIV 109-A 109-B-YECOHA
288,108-C 105-C-250VIV 105-C-PERICHON 109-A 109-B-YECOHA 104-A,-27.466185529306912,-58.826879118848616,108-C 105-C-250VIV 105-C-PERICHON 109-A 109-B-YECOHA 104-A
289,108-C 104-A 104-B 104-C 104-D 103-D,-27.465540483553585,-58.833915071922696,108-C 104-A 104-B 104-C 104-D 103-D
290,108-C 104-A 104-B 104-C 104-D,-27.465383794246623,-58.835593580338255,108-C 104-A 104-B 104-C 104-D
291,108-C 104-A 104-B 104-C 104-D 103-D,-27.4651950338468,-58.837607248743055,108-C 104-A 104-B 104-C 104-D 103-D
292,108-C 102-A 106-B 106-C 106-A 102-B 101-B 101-C,-27.46659732866416,-58.83559407091112,108-C 102-A 106-B 106-C 106-A 102-B 101-B 101-C
293,108-C 102-A,-27.475015271544727,-58.81948465199889,108-C 102-A
294,108-C,-27.47625696674469,-58.819690930699245,108-C
295,108-C 108-A-B 102-B,-27.478980917644154,-58.814986335987726,108-C 108-A-B 102-B
296,108-C 108-A-B 110-A,-27.480449678444103,-58.81527936738825,108-C 108-A-B 110-A
297,108-C,-27.509556507841367,-58.79820601724416,108-C
298,108-C 108-A-B 102-B,-27.48317991584404,-58.815755207989056,108-C 108-A-B 102-B
299,108-C,-27.48983908644392,-58.81691878379102,108-C
300,108-C,-27.492410654343832,-58.817062449591056,108-C
301,108-C,-27.493632065243684,-58.81605905198854,108-C
302,108-C,-27.4943379891436,-58.81555965818725,108-C
303,108-C,-27.495917642643438,-58.81425887068398,108-C
304,108-C,-27.49760374624324,-58.8129311771806,108-C
305,108-C,-27.50028922424293,-58.8108310074753,108-C
306,108-C,-27.5106090233414,-58.799057115746045,108-C
307,108-C,-27.501962335842745,-58.809477833071874,108-C
308,108-C,-27.504093350942423,-58.807167948166125,108-C
309,108-C,-27.50418136094234,-58.80616488586375,108-C
310,108-C,-27.504268197442208,-58.804841467160585,108-C
311,108-C,-27.50438738814209,-58.80362810285769,108-C
312,108-C,-27.504507416941944,-58.80223444375436,108-C
313,108-C,-27.50590954174164,-58.79963194664799,108-C
314,108-C,-27.50601238764152,-58.79842805394512,108-C
315,108-C,-27.510450856841505,-58.800166460648725,108-C
316,108-C,-27.509867811640856,-58.79317486373217,108-C
317,108-C,-27.5119633713408,-58.79339631363244,108-C
318,108-A-B,-27.50456483304196,-58.802325219754565,108-A-B
319,108-A-B 102-B 110-B,-27.4870435540438,-58.814704787886086,108-A-B 102-B 110-B
320,108-A-B 102-B 110-B,-27.487301129943564,-58.81230689308038,108-A-B 102-B 110-B
321,108-A-B 102-B 110-B,-27.48706249714333,-58.80986960317461,108-A-B 102-B 110-B
322,108-A-B 102-B 110-B,-27.486910533243137,-58.8077119336695,108-A-B 102-B 110-B
323,108-A-B 102-B 110-B,-27.489350505243095,-58.80822867807042,108-A-B 102-B 110-B
324,102-B 108-A-B 110-B,-27.490624674807524,-58.808105774897136,102-B 108-A-B 110-B
325,108-A-B 110-B,-27.4917368331426,-58.80413269336044,108-A-B 110-B
326,108-A-B 110-B,-27.49289185934245,-58.80290985755737,108-A-B 110-B
327,108-A-B 110-B,-27.492896301742245,-58.80099836455283,108-A-B 110-B
328,108-A-B 108-C,-27.504581848241855,-58.8013286115522,108-A-B 108-C
329,108-A-B 110-B,-27.49278423574213,-58.79970386334976,108-A-B 110-B
330,108-A-B,-27.494228102342102,-58.79981450454984,108-A-B
331,108-A-B,-27.49590649464208,-58.80035639455094,108-A-B
332,108-A-B,-27.49891568174187,-58.79940697634833,108-A-B
333,108-A-B,-27.501172592941632,-58.79780695484424,108-A-B
334,108-A-B,-27.50343143204156,-58.79789421044416,108-A-B
335,108-A-B,-27.50445134204154,-58.79798716584425,108-A-B
336,108-A-B,-27.50586344124149,-58.79800426484413,108-A-B
337,108-A-B 108-C,-27.50733102864144,-58.79813326234425,108-A-B 108-C
338,108-A-B 108-C,-27.5083291457414,-58.798021363943896,108-A-B 108-C
339,108-A-B,-27.504670109741745,-58.80025639844964,108-A-B
340,108-A-B 108-C,-27.508836167041174,-58.795838381138616,108-A-B 108-C
341,108-A-B 108-C,-27.508897187341017,-58.79449727663543,108-A-B 108-C
342,108-A-B 108-C,-27.509099191140848,-58.79275987573128,108-A-B 108-C
343,108-A-B,-27.50477119544163,-58.79920916344714,108-A-B
344,108-A-B,-27.50447925374149,-58.79766010394348,108-A-B
345,108-A-B,-27.50357157744151,-58.79758785194342,108-A-B
346,108-A-B,-27.5013014228416,-58.79749917144349,108-A-B
347,108-A-B,-27.498803280441848,-58.799174210947776,108-A-B
348,108-A-B,-27.496097434442067,-58.80024508285064,108-A-B
349,108-A-B,-27.49427085004208,-58.79960990224936,108-A-B
350,108-A-B 108-C,-27.508663667440977,-58.79420013813474,108-A-B 108-C
351,108-A-B,-27.49276546024212,-58.79936598884896,108-A-B
352,108-A-B 102-B 110-B,-27.49139904244232,-58.8010795013532,108-A-B 102-B 110-B
353,108-A-B 102-B 110-B,-27.490826055542534,-58.80316676285823,108-A-B 102-B 110-B
354,108-A-B 102-B 110-B,-27.489740682842815,-58.80551880876396,108-A-B 102-B 110-B
355,108-A-B 102-B 110-B,-27.48674482304311,-58.807467768868925,108-A-B 102-B 110-B
356,108-A-B 102-B 110-B,-27.486774914043327,-58.809761811974376,108-A-B 102-B 110-B
357,108-A-B 102-B 110-B,-27.48704942144357,-58.81233715168048,108-A-B 102-B 110-B
358,108-A-B 102-B 110-B,-27.4868723956438,-58.81470763778613,108-A-B 102-B 110-B
359,108-A-B 108-C,-27.508520923641136,-58.795574602638055,108-A-B 108-C
360,108-A-B 102-B 110-B,-27.486790923543936,-58.81587934398892,108-A-B 102-B 110-B
361,104-A 108-A-B,-27.46405199364568,-58.82529699891398,104-A 108-A-B
362,108-A-B,-27.463238278545816,-58.82640483511671,108-A-B
363,108-A-B,-27.46140415044616,-58.82907489032326,108-A-B
364,108-A-B,-27.461085638146447,-58.832197149330725,108-A-B
365,108-A-B 106-A 106-B 106-C 105-C-PERICHON 103-A 103-B 103-C-ESPERANZA-PUERTO,-27.46106350994668,-58.83465757313655,108-A-B 106-A 106-B 106-C 105-C-PERICHON 103-A 103-B 103-C-ESPERANZA-PUERTO
366,108-A-B 108-C,-27.506457047641437,-58.79776940394351,108-A-B 108-C
367,108-A-B,-27.475743211628295,-58.847231589667466,108-A-B
368,108-A-B,-27.476143894847063,-58.844699344658615,108-A-B
369,108-A-B 108-C,-27.505803594441637,-58.79971417314821,108-A-B 108-C
370,108-A-B,-27.47629057814693,-58.843439376955594,108-A-B
371,108-A-B,-27.476657873146667,-58.84074576854917,108-A-B
372,108-A-B,-27.477025419546404,-58.838171350843005,108-A-B
373,108-A-B,-27.479465391646208,-58.837113806040215,108-A-B
374,108-A-B,-27.47693422444625,-58.83654040003914,108-A-B
375,108-A-B,-27.47549102834633,-58.83680233453995,108-A-B
376,108-A-B 108-C,-27.505694378241735,-58.800781021750765,108-A-B 108-C
377,108-A-B,-27.461352434146207,-58.82965768412465,108-A-B
378,108-A-B,-27.46420395754568,-58.82542758901428,108-A-B
379,108-A-B 108-C,-27.46737275466528,-58.82166790915237,108-A-B 108-C
380,108-A-B 108-C,-27.468941409244987,-58.81990114880058,108-A-B 108-C
381,108-A-B,-27.505603183141915,-58.80232345955445,108-A-B
382,108-A-B,-27.473345048124283,-58.81350176677569,108-A-B
383,108-A-B 110-A,-27.475663863244183,-58.81412232948608,108-A-B 110-A
384,108-A-B 110-A,-27.47805765094416,-58.81472674848724,108-A-B 110-A
385,108-A-B 102-B 110-B,-27.486948168043927,-58.81596425268911,108-A-B 102-B 110-B
386,103-C-ESPERANZA-MONTAÃ‘A 103-C-ESPERANZA-PUERTO,-27.543129969539237,-58.789524544919416,103-C-ESPERANZA-MONTAÃ‘A 103-C-ESPERANZA-PUERTO
387,103-C-ESPERANZA-MONTAÃ‘A 103-C-ESPERANZA-PUERTO,-27.54172306703935,-58.78997951462066,103-C-ESPERANZA-MONTAÃ‘A 103-C-ESPERANZA-PUERTO
388,103-C-ESPERANZA-MONTAÃ‘A 103-C-ESPERANZA-PUERTO,-27.53731955043955,-58.79049894112244,103-C-ESPERANZA-MONTAÃ‘A 103-C-ESPERANZA-PUERTO
389,103-C-ESPERANZA-MONTAÃ‘A 103-C-ESPERANZA-PUERTO,-27.536142898839618,-58.79062961502292,103-C-ESPERANZA-MONTAÃ‘A 103-C-ESPERANZA-PUERTO
390,103-C-ESPERANZA-MONTAÃ‘A 103-C-ESPERANZA-PUERTO,-27.535267660539667,-58.790710835623194,103-C-ESPERANZA-MONTAÃ‘A 103-C-ESPERANZA-PUERTO
391,103-C-ESPERANZA-MONTAÃ‘A 103-C-ESPERANZA-PUERTO,-27.53400417243972,-58.79087009182372,103-C-ESPERANZA-MONTAÃ‘A 103-C-ESPERANZA-PUERTO
392,103-C-ESPERANZA-MONTAÃ‘A 103-C-ESPERANZA-PUERTO,-27.532326450639815,-58.79108165102445,103-C-ESPERANZA-MONTAÃ‘A 103-C-ESPERANZA-PUERTO
393,103-C-ESPERANZA-MONTAÃ‘A 103-C-ESPERANZA-PUERTO,-27.531275862939854,-58.79118709532485,103-C-ESPERANZA-MONTAÃ‘A 103-C-ESPERANZA-PUERTO
394,103-C-ESPERANZA-MONTAÃ‘A 103-C-ESPERANZA-PUERTO 103-D,-27.530725507139888,-58.791433104225455,103-C-ESPERANZA-MONTAÃ‘A 103-C-ESPERANZA-PUERTO 103-D
395,103-C-ESPERANZA-MONTAÃ‘A 103-C-ESPERANZA-PUERTO,-27.547310611339057,-58.789387416918565,103-C-ESPERANZA-MONTAÃ‘A 103-C-ESPERANZA-PUERTO
396,103-C-ESPERANZA-MONTAÃ‘A,-27.52348974544037,-58.79341483763106,103-C-ESPERANZA-MONTAÃ‘A
397,103-B 103-C-ESPERANZA-MONTAÃ‘A,-27.52331540184025,-58.79231588622849,103-B 103-C-ESPERANZA-MONTAÃ‘A
398,103-B 103-C-ESPERANZA-MONTAÃ‘A,-27.523213226440173,-58.79115583092572,103-B 103-C-ESPERANZA-MONTAÃ‘A
399,103-B 103-C-ESPERANZA-MONTAÃ‘A,-27.523018682440156,-58.79089750062517,103-B 103-C-ESPERANZA-MONTAÃ‘A
400,103-B 103-C-ESPERANZA-MONTAÃ‘A,-27.523235354640352,-58.7932485406307,103-B 103-C-ESPERANZA-MONTAÃ‘A
401,103-C-ESPERANZA-MONTAÃ‘A 103-C-ESPERANZA-PUERTO,-27.547173148138967,-58.78819433681577,103-C-ESPERANZA-MONTAÃ‘A 103-C-ESPERANZA-PUERTO
402,103-B 103-C-ESPERANZA-MONTAÃ‘A,-27.524187119740493,-58.79498946193474,103-B 103-C-ESPERANZA-MONTAÃ‘A
403,103-C-ESPERANZA-MONTAÃ‘A 103-C-ESPERANZA-PUERTO,-27.541772604139368,-58.7901621562211,103-C-ESPERANZA-MONTAÃ‘A 103-C-ESPERANZA-PUERTO
404,103-C-ESPERANZA-MONTAÃ‘A 103-C-ESPERANZA-PUERTO,-27.544574925739266,-58.79035368272122,103-C-ESPERANZA-MONTAÃ‘A 103-C-ESPERANZA-PUERTO
405,103-C-ESPERANZA-MONTAÃ‘A 103-C-ESPERANZA-PUERTO,-27.546999139839222,-58.79075844482188,103-C-ESPERANZA-MONTAÃ‘A 103-C-ESPERANZA-PUERTO
406,103-C-ESPERANZA-MONTAÃ‘A 103-C-ESPERANZA-PUERTO,-27.546735277538755,-58.78598905811055,103-C-ESPERANZA-MONTAÃ‘A 103-C-ESPERANZA-PUERTO
407,103-C-ESPERANZA-MONTAÃ‘A 103-C-ESPERANZA-PUERTO,-27.545636745238813,-58.78611973201102,103-C-ESPERANZA-MONTAÃ‘A 103-C-ESPERANZA-PUERTO
408,103-C-ESPERANZA-MONTAÃ‘A 103-C-ESPERANZA-PUERTO,-27.544729739538862,-58.786189134111275,103-C-ESPERANZA-MONTAÃ‘A 103-C-ESPERANZA-PUERTO
409,103-C-ESPERANZA-MONTAÃ‘A 103-C-ESPERANZA-PUERTO,-27.543802533438907,-58.7862768088116,103-C-ESPERANZA-MONTAÃ‘A 103-C-ESPERANZA-PUERTO
410,103-C-ESPERANZA-MONTAÃ‘A 103-C-ESPERANZA-PUERTO,-27.54287624923896,-58.78663396171255,103-C-ESPERANZA-MONTAÃ‘A 103-C-ESPERANZA-PUERTO
411,102-A 102-C,-27.482367709342057,-58.79475678033928,102-A 102-C
412,102-A 102-C 102-B 104-C 104-C 108-A-B,-27.474335341459607,-58.83874072659765,102-A 102-C 102-B 104-C 104-C 108-A-B
413,102-A 102-C 102-B 104-A 104-C 104-C 108-A-B,-27.47093355888876,-58.838388350998926,102-A 102-C 102-B 104-A 104-C 104-C 108-A-B
414,102-A 102-B 106-A 106-B 106-C 108-A-B,-27.465046003547183,-58.84148362745229,102-A 102-B 106-A 106-B 106-C 108-A-B
415,102-A 102-B 106-A 106-B 106-C 108-A-B,-27.46629414209573,-58.83917278352152,102-A 102-B 106-A 106-B 106-C 108-A-B
416,102-A 101-B 101-C,-27.48611240844059,-58.78131732050692,102-A 101-B 101-C
417,102-A 106-A,-27.48621894244064,-58.78187907570823,102-A 106-A
418,102-A,-27.487889707240555,-58.781756951407736,102-A
419,102-A,-27.48971612394055,-58.78202793830812,102-A
420,102-A,-27.48357101544152,-58.789737529027214,102-A
421,105-C-250VIV 105-C-PERICHON,-27.45733641284043,-58.76859409438026,105-C-250VIV 105-C-PERICHON
422,105-C-250VIV 105-C-PERICHON,-27.457148993540283,-58.76710714477676,105-C-250VIV 105-C-PERICHON
423,105-B 105-C-250VIV 105-C-PERICHON 109-A 109-B-YECOHA,-27.4674679398486,-58.806078822262094,105-B 105-C-250VIV 105-C-PERICHON 109-A 109-B-YECOHA
424,105-C-250VIV 105-B 105-C-PERICHON 109-A 109-B-YECOHA,-27.46707436386176,-58.808126931712096,105-C-250VIV 105-B 105-C-PERICHON 109-A 109-B-YECOHA
425,105-C-250VIV 105-B 105-C-PERICHON 109-A 109-B-YECOHA 104-C,-27.467243545592808,-58.810849614987696,105-C-250VIV 105-B 105-C-PERICHON 109-A 109-B-YECOHA 104-C
426,105-C-250VIV 105-C-PERICHON,-27.457921804940177,-58.76647665807516,105-C-250VIV 105-C-PERICHON
427,105-C-250VIV 105-C-PERICHON,-27.458146859040383,-58.76842394177975,105-C-250VIV 105-C-PERICHON
428,105-C-250VIV 105-C-PERICHON,-27.469670970145224,-58.82276792730731,105-C-250VIV 105-C-PERICHON
429,105-C-250VIV 105-C-PERICHON,-27.467417069861423,-58.81612782457777,105-C-250VIV 105-C-PERICHON
430,105-C-250VIV 105-C-PERICHON 109-A 109-B-YECOHA 104-C,-27.46763214968687,-58.8141246042397,105-C-250VIV 105-C-PERICHON 109-A 109-B-YECOHA 104-C
431,105-C-250VIV 105-B 105-C-PERICHON 109-A 109-B-YECOHA,-27.467416282743,-58.81086330309218,105-C-250VIV 105-B 105-C-PERICHON 109-A 109-B-YECOHA
432,105-C-250VIV 105-C-PERICHON 105-B,-27.467259809844744,-58.80915542644741,105-C-250VIV 105-C-PERICHON 105-B
433,105-C-250VIV 105-B 105-C-PERICHON 109-A 109-B-YECOHA,-27.467323366643825,-58.807210444470655,105-C-250VIV 105-B 105-C-PERICHON 109-A 109-B-YECOHA
434,105-C-250VIV 105-B 105-C-PERICHON 109-A 109-B-YECOHA,-27.468646551436347,-58.80263128515148,105-C-250VIV 105-B 105-C-PERICHON 109-A 109-B-YECOHA
435,105-A 105-B 110-A,-27.444182105442422,-58.783891403018174,105-A 105-B 110-A
436,105-A 105-C-250VIV 105-C-PERICHON 109-A 109-B-YECOHA,-27.46301206493214,-58.77485639254421,105-A 105-C-250VIV 105-C-PERICHON 109-A 109-B-YECOHA
437,105-C-250VIV 105-C-PERICHON 109-A 109-B-YECOHA,-27.461405626885742,-58.76855900111333,105-C-250VIV 105-C-PERICHON 109-A 109-B-YECOHA
438,105-C-250VIV 105-C-PERICHON,-27.45956256254025,-58.767627409577685,105-C-250VIV 105-C-PERICHON
439,105-C-250VIV 105-C-PERICHON,-27.458026830240367,-58.76853575638004,105-C-250VIV 105-C-PERICHON
440,105-B,-27.44297393794253,-58.784290130119274,105-B
441,105-B,-27.455592809342285,-58.78675197892356,105-B
442,105-B,-27.45763682024225,-58.78718758642434,105-B
443,105-B,-27.45810176444204,-58.78521054691959,105-B
444,105-B,-27.45928143344188,-58.78404889901669,105-B
445,105-B,-27.46105185904185,-58.78429105221704,105-B
446,105-B,-27.46155368364207,-58.78682305752301,105-B
447,105-B,-27.463421423142115,-58.7880132039256,105-B
448,105-B,-27.465270554742148,-58.78922464042824,105-B
449,105-B,-27.467849498744897,-58.81849231849737,105-B
450,105-B,-27.469342315644855,-58.81872147969776,105-B
451,105-B,-27.44959748544198,-58.7816496630122,105-B
452,105-B,-27.46167966364204,-58.78666790842261,105-B
453,105-B,-27.461099468241883,-58.78486068631838,105-B
454,105-B,-27.459327701541927,-58.78453454641783,105-B
455,105-B,-27.458838785142177,-58.786778549623214,105-B
456,105-B,-27.457955332542223,-58.78709186512408,105-B
457,105-B,-27.45581836634228,-58.786690958723376,105-B
458,105-B,-27.45107479594224,-58.7846872647192,105-B
459,105-B,-27.453507140342303,-58.7862475560226,105-B
460,105-B,-27.45263542244224,-58.78528321802044,105-B
461,105-B,-27.45117135544224,-58.78464384651909,105-B
462,105-B,-27.450784111542152,-58.78343140421626,105-B
463,105-B,-27.452267205442247,-58.785144413720154,105-B
464,105-B,-27.45346606904233,-58.78639247912295,105-B
465,104-B,-27.50043624274585,-58.8415153110482,104-B
466,104-B,-27.49234904734659,-58.846371618160696,104-B
467,104-B 110-B,-27.492178727046703,-58.84734618206304,104-B 110-B
468,104-B,-27.491799110646912,-58.849547437468296,104-B
469,104-B 110-B,-27.49124054064709,-58.85143395237285,104-B 110-B
470,104-B,-27.489944866047168,-58.85155674727328,104-B
471,104-B 110-B,-27.48808752014725,-58.85166319747377,104-B 110-B
472,104-B,-27.48670467374721,-58.850553684971274,104-B
473,104-B,-27.48553523064721,-58.850264928370734,104-B
474,104-B 104-A,-27.48372364984725,-58.84980182816986,104-B 104-A
475,104-B,-27.48241934194724,-58.84928567066879,104-B
476,104-B,-27.499498498939356,-58.841516039048514,104-B
477,104-B,-27.481330784147268,-58.84903957796831,104-B
478,104-B,-27.480119934447284,-58.84887193986806,104-B
479,104-B,-27.47897714574733,-58.848707235467806,104-B
480,104-B,-27.47778968154736,-58.84855242176756,104-B
481,104-B,-27.47662283674738,-58.84837698846728,104-B
482,104-B,-27.4757164177474,-58.848237429767046,104-B
483,105-A 105-B 110-A,-27.446654347842248,-58.78290535591552,105-A 105-B 110-A
484,104-B,-27.474567929347,-58.84347013855589,104-B
485,104-B 104-A 110-A,-27.47359336554717,-58.84458367435864,104-B 104-A 110-A
486,104-B,-27.473449532047287,-58.84595369646192,104-B
487,104-B,-27.497498924239057,-58.84130675329909,104-B
488,104-B,-27.4723476470473,-58.845840456961774,104-B
489,104-B,-27.47144013844735,-58.845762672861696,104-B
490,104-B,-27.468898661547435,-58.84557190076153,104-B
491,104-B,-27.468120653247443,-58.84550484556146,104-B
492,104-B,-27.468125766247205,-58.84314106505588,104-B
493,104-B,-27.468231210647104,-58.84188973065287,104-B
494,104-B,-27.49682503804223,-58.841233897960045,104-B
495,105-A 105-B,-27.448317233542085,-58.782195073413625,105-A 105-B
496,105-A 105-B 110-A,-27.444199875142424,-58.783715718317744,105-A 105-B 110-A
497,104-B 108-A-B,-27.46934533314697,-58.84085548765029,104-B 108-A-B
498,104-B 108-A-B,-27.469143748447177,-58.84327115215604,104-B 108-A-B
499,104-B,-27.495930858491253,-58.841144230634654,104-B
500,104-B 108-A-B,-27.46895951414741,-58.84544717806124,104-B 108-A-B
501,104-B 108-A-B,-27.468995723947533,-58.84679121626441,104-B 108-A-B
502,104-B,-27.47113797084749,-58.847187847865115,104-B
503,104-B,-27.472521990647447,-58.84733763246529,104-B
504,104-B,-27.475239236047308,-58.8470868459644,104-B
505,104-B,-27.47589106927497,-58.8471358666241,104-B
506,104-B,-27.47679215124728,-58.8473022608647,104-B
507,104-B,-27.477971233547247,-58.84745715846493,104-B
508,104-B,-27.47912734944723,-58.84764843346526,104-B
509,104-B,-27.48031690914721,-58.84779595496548,104-B
510,104-B,-27.494989933545984,-58.84097543274757,104-B
511,104-B,-27.481463804947165,-58.84794657776571,104-B
512,104-B,-27.48261086844712,-58.848110443965936,104-B
513,104-B,-27.483506390947092,-58.848257211066176,104-B
514,104-B 110-A,-27.483700180547256,-58.84998505667028,104-B 110-A
515,104-B 110-A 104-A,-27.48541034024725,-58.850433823671146,104-B 110-A 104-A
516,104-B 104-A,-27.486697381447208,-58.85070665467165,104-B 104-A
517,104-B 110-B,-27.491271805147136,-58.851590191073214,104-B 110-B
518,104-B 110-B,-27.491906734346923,-58.84949136256816,104-B 110-B
519,104-B 104-A,-27.4924616162466,-58.846524839361045,104-B 104-A
520,104-B 110-B 104-A,-27.49278884574645,-58.84478668405688,104-B 110-B 104-A
521,104-B 110-B 104-A,-27.493167875446247,-58.84275784445202,104-B 110-B 104-A
522,104-B 110-B,-27.493449542792614,-58.84108489473932,104-B 110-B
523,104-B,-27.495003596046015,-58.841205013048125,104-B
524,104-B,-27.495915211845983,-58.84128757474819,104-B
525,104-B,-27.49684065774597,-58.84139486314834,104-B
526,104-B,-27.497494865345935,-58.84145236294841,104-B
527,104-B,-27.498607311545925,-58.84160835024865,104-B
528,104-B 110-B,-27.49299495674624,-58.84273160905197,104-B 110-B
529,104-B,-27.4994809253706,-58.841643645321874,104-B
530,104-B,-27.50037365653737,-58.8416722794956,104-B
531,104-B 110-B,-27.49261684914645,-58.84493445705724,104-B 110-B
532,103-B 103-D 103-C-ESPERANZA-PUERTO 110-B,-27.488379817892305,-58.82175095475331,103-B 103-D 103-C-ESPERANZA-PUERTO 110-B
533,109-B-YECOHA 109-A,-27.471353218046065,-58.83226965272967,109-B-YECOHA 109-A
534,109-B-YECOHA 109-A,-27.47176611064569,-58.82845714412056,109-B-YECOHA 109-A
535,109-B-YECOHA 109-A,-27.472028967145448,-58.8258652920144,109-B-YECOHA 109-A
536,109-B-YECOHA 109-A,-27.47223843084521,-58.82347963470871,109-B-YECOHA 109-A
537,109-B-YECOHA 109-A,-27.47052265524521,-58.82294168420762,109-B-YECOHA 109-A
538,109-B-YECOHA 109-A,-27.468670925245245,-58.82268293480722,109-B-YECOHA 109-A
539,109-B-YECOHA,-27.447934599738907,-58.749943018737206,109-B-YECOHA
540,109-B-YECOHA,-27.44399225533852,-58.74481421602551,109-B-YECOHA
541,109-B-YECOHA,-27.44295222883841,-58.743391052622286,109-B-YECOHA
542,109-B-YECOHA,-27.441295294238255,-58.7411612149172,109-B-YECOHA
543,109-B-YECOHA,-27.436787171437818,-58.73526538420382,109-B-YECOHA
544,109-B-YECOHA,-27.429470105237066,-58.725398375381374,109-B-YECOHA
545,109-B-YECOHA,-27.42746079533654,-58.719444122867486,109-B-YECOHA
546,109-B-YECOHA,-27.427034827036376,-58.71782540976372,109-B-YECOHA
547,109-B-YECOHA,-27.427841752836216,-58.71660056216072,109-B-YECOHA
548,109-B-YECOHA,-27.427802274136216,-58.71644616756034,109-B-YECOHA
549,109-B-YECOHA,-27.4268185739364,-58.717884250663886,109-B-YECOHA
550,109-B-YECOHA,-27.427279411036547,-58.719487205867615,109-B-YECOHA
551,109-B-YECOHA,-27.42923566333709,-58.72547590808156,109-B-YECOHA
552,109-B-YECOHA,-27.436537223037824,-58.73535884240405,109-B-YECOHA
553,109-B-YECOHA,-27.441143497938288,-58.74137721661774,109-B-YECOHA
554,109-B-YECOHA,-27.442749973538447,-58.74352675562264,109-B-YECOHA
555,109-B-YECOHA,-27.44373702643854,-58.744853610925674,109-B-YECOHA
556,109-B-YECOHA,-27.448148002938968,-58.75076788183912,109-B-YECOHA
557,106-B,-27.5035973937409,-58.79116161442816,106-B
558,106-B,-27.495941782441104,-58.790240610826885,106-B
559,106-B,-27.495107699341222,-58.79119204072927,106-B
560,106-B,-27.49494534184137,-58.79249986903238,106-B
561,106-B,-27.49482916864145,-58.79341416703456,106-B
562,106-B,-27.49305664754177,-58.796002498740926,106-B
563,106-B,-27.49189064104179,-58.79580896064062,106-B
564,106-B,-27.490714492341827,-58.79564618404039,106-B
565,106-B,-27.48954748004184,-58.79545909994009,106-B
566,106-B 106-C 106-A,-27.48792390534192,-58.79552129374042,106-B 106-C 106-A
567,106-B,-27.503479795641056,-58.79278552433203,106-B
568,106-B,-27.487000186353832,-58.796410927656645,106-B
569,106-B,-27.485845612442084,-58.796477836542955,106-B
570,106-B,-27.484845483742124,-58.79634523474275,106-B
571,106-B,-27.48343480944215,-58.79624196974268,106-B
572,106-B,-27.482098063542164,-58.795779288641754,106-B
573,106-B,-27.502336168741103,-58.79278585963216,106-B
574,106-B,-27.501148453041157,-58.79270639913212,106-B
575,106-B,-27.500627182541027,-58.791183239728575,106-B
576,106-B,-27.499671310341007,-58.7907301140276,106-B
577,106-B,-27.48284572934252,-58.79969539765094,106-B
578,106-B,-27.484169483342487,-58.7998207071511,106-B
579,106-B,-27.485510420142337,-58.79882024314854,106-B
580,106-B,-27.485780652742108,-58.79671219454351,106-B
581,106-B,-27.486797069826437,-58.796337778786345,106-B
582,106-B,-27.48776853235271,-58.79640583865799,106-B
583,106-B 106-C 110-B,-27.48814803744191,-58.795502350640334,106-B 106-C 110-B
584,106-B,-27.489326784541888,-58.7956692343406,106-B
585,106-B,-27.49837856934101,-58.79048988862719,106-B
586,106-B,-27.490491282341857,-58.795872579240935,106-B
587,106-B,-27.49164731434184,-58.796046168441215,106-B
588,106-B,-27.492783229941807,-58.79624666364155,106-B
589,106-B,-27.493899447941786,-58.7964065065418,106-B
590,106-B,-27.494925812041735,-58.79655226784202,106-B
591,106-B,-27.496151832941404,-58.79357862003481,106-B
592,106-B,-27.496525330541232,-58.79181221773054,106-B
593,106-B,-27.49730057284105,-58.79049743242735,106-B
594,106-B,-27.49838091634105,-58.79068803682768,106-B
595,106-B,-27.49719345204104,-58.790266091826794,106-B
596,106-B,-27.500491898640995,-58.791010572528165,106-B
597,106-B,-27.501238558541168,-58.7929157791326,106-B
598,106-B,-27.50235771024111,-58.792994066032655,106-B
599,106-B,-27.50349857114105,-58.79299674823252,106-B
600,106-B,-27.503706358440898,-58.79124115862831,106-B
601,106-B 106-A 106-C 105-C-PERICHON 103-B 103-A,-27.46320374755284,-58.83248917007717,106-B 106-A 106-C 105-C-PERICHON 103-B 103-A
602,106-B 106-C 106-A,-27.46987963924779,-58.8332362117818,106-B 106-C 106-A
603,105-C-PERICHON,-27.42244154413944,-58.745962872030994,105-C-PERICHON
604,105-C-PERICHON,-27.424597788739398,-58.74628876043148,105-C-PERICHON
605,105-C-PERICHON,-27.413850177139697,-58.745132225430105,105-C-PERICHON
606,105-C-PERICHON,-27.41209022894004,-58.74783128203673,105-C-PERICHON
607,105-C-PERICHON,-27.41899985084021,-58.75225927384633,105-C-PERICHON
608,105-C-PERICHON 105-C-250VIV 109-A 109-B-YECOHA,-27.46694718684521,-58.821490944404616,105-C-PERICHON 105-C-250VIV 109-A 109-B-YECOHA
609,105-C-PERICHON,-27.42460491333941,-58.74647123443192,105-C-PERICHON
610,105-C-PERICHON,-27.447513241438937,-58.750295980638086,105-C-PERICHON
611,105-C-PERICHON,-27.44292699923904,-58.749452593536645,105-C-PERICHON
612,105-C-PERICHON,-27.442657940239005,-58.74922594693616,105-C-PERICHON
613,105-C-PERICHON,-27.447555653838933,-58.750382984838296,105-C-PERICHON
614,105-C-PERICHON,-27.45732232167768,-58.7686640660094,105-C-PERICHON
615,105-C-PERICHON,-27.45709287151069,-58.7671102418974,105-C-PERICHON
616,105-C-PERICHON,-27.457930537266822,-58.766297067294495,105-C-PERICHON
617,105-C-PERICHON,-27.458028984214607,-58.768586128927616,105-C-PERICHON
618,104-C,-27.497798374045622,-58.83830940074089,104-C
619,104-C 103-A,-27.503308050444694,-58.8303304156213,104-C 103-A
620,104-C 104-D,-27.46136819214585,-58.82582665141556,104-C 104-D
621,104-C 104-D,-27.462589267746186,-58.82996429412523,104-C 104-D
622,104-C 104-D,-27.46352502344616,-58.83006144042537,104-C 104-D
623,104-C 103-A,-27.503494380144527,-58.82875696481753,104-C 103-A
624,104-C 105-C-250VIV 105-A 105-B 105-C-PERICHON 104-B 108-C 104-D 104-A 108-A-B,-27.46759380005321,-58.839279829058405,104-C 105-C-250VIV 105-A 105-B 105-C-PERICHON 104-B 108-C 104-D 104-A 108-A-B
625,104-C 104-D 104-A 110-A,-27.472011365146727,-58.83954765934687,104-C 104-D 104-A 110-A
626,104-C 104-A 104-D 110-A,-27.473973820146664,-58.83967984194695,104-C 104-A 104-D 110-A
627,104-C 104-D,-27.476115731646424,-58.837883013342434,104-C 104-D
628,104-C 104-D 108-A-B,-27.479179233446366,-58.83844057754341,104-C 104-D 108-A-B
629,104-C 104-D,-27.481905615046276,-58.83890770104418,104-C 104-D
630,104-C 104-D,-27.48379229764625,-58.839259070344816,104-C 104-D
631,104-C,-27.486313574146063,-58.83821971434203,104-C
632,104-C,-27.48792709044603,-58.83823765164188,104-C
633,104-C,-27.489333070945968,-58.83825181704176,104-C
634,104-C,-27.49129527444589,-58.8382798126416,104-C
635,104-C,-27.49345990094581,-58.83819414954113,104-C
636,104-C,-27.494983563345745,-58.83827143074113,104-C
637,104-C,-27.4962600433457,-58.83827989644101,104-C
638,104-C 103-A,-27.506213218044184,-58.82633786371145,104-C 103-A
639,104-C 103-A,-27.50744166984415,-58.82640743351149,104-C 103-A
640,104-C 103-A,-27.508310705544133,-58.826446660811456,104-C 103-A
641,104-C 103-A,-27.509371509979086,-58.826528971054046,104-C 103-A
642,104-C,-27.50968416414428,-58.82849201281616,104-C
643,104-C,-27.49831402874535,-58.8355186460342,104-C
644,104-C,-27.50994928374448,-58.8309122035219,104-C
645,104-C,-27.509761529144267,-58.828478853216126,104-C
646,104-C,-27.50933972002613,-58.826448745813096,104-C
647,104-C 103-A,-27.50824465614411,-58.826301150911114,104-C 103-A
648,104-C 103-A,-27.507442927144137,-58.82622529471105,104-C 103-A
649,104-C 103-A,-27.505258621042227,-58.826068163665205,104-C 103-A
650,104-C,-27.498378234145147,-58.833137347428554,104-C
651,104-C,-27.498627176644927,-58.83105310332356,104-C
652,104-C 110-B,-27.49594438084531,-58.833890461430606,104-C 110-B
653,104-C 110-B,-27.49576400234543,-58.83519602663375,104-C 110-B
654,104-C,-27.49564062074551,-58.83602818193573,104-C
655,104-C,-27.4955122937456,-58.83707122603822,104-C
656,104-C 110-B,-27.495396455845697,-58.83798829004041,104-C 110-B
657,104-C 103-A,-27.500153353544896,-58.83122853652378,104-C 103-A
658,104-C 104-A,-27.4928240497458,-58.83799055314072,104-C 104-A
659,104-C,-27.49200622744583,-58.8380252542409,104-C
660,104-C 104-A,-27.489237349545917,-58.83802190144123,104-C 104-A
661,104-C,-27.487931197645985,-58.83801511214136,104-C
662,104-C,-27.486705260446037,-58.838027601141526,104-C
663,104-C 103-A,-27.501324221644847,-58.83139131312403,104-C 103-A
664,104-C 104-A 104-D,-27.45960011344561,-58.82292785400888,104-C 104-A 104-D
665,104-C 104-A 104-D,-27.459770433745398,-58.82049408460311,104-C 104-A 104-D
666,104-C 104-A 104-D,-27.45988199684528,-58.81919229119999,104-C 104-A 104-D
667,104-C 104-D,-27.46544037214509,-58.81947392320001,104-C 104-D
668,104-C,-27.502819720744963,-58.83315059082803,104-C
669,104-C,-27.46749075324428,-58.81198066938197,104-C
670,104-C,-27.467035532144,-58.80877928527442,104-C
671,104-C,-27.465346494843963,-58.80786029337244,104-C
672,104-C,-27.46548286834388,-58.80710508387064,104-C
673,104-C,-27.465696523043828,-58.806471076769085,104-C
674,104-C,-27.4650205225438,-58.80591183616787,104-C
675,104-C,-27.464435381943893,-58.806726724769845,104-C
676,104-C,-27.50263749814509,-58.834455736931176,104-C
677,104-C,-27.46550759494392,-58.807471875971515,104-C
678,104-C,-27.46697870284393,-58.80826673187321,104-C
679,104-C 104-D,-27.46552360444491,-58.81792897079632,104-C 104-D
680,106-A,-27.467529574481976,-58.83298374563464,106-A
681,106-C,-27.514390686639025,-58.77620008479124,106-C
682,106-C,-27.514017691939696,-58.78311984880774,106-C
683,106-C,-27.497224297440543,-58.784939979114135,106-C
684,106-C,-27.49900779884045,-58.78504299271416,106-C
685,106-C,-27.500166010240445,-58.78524767881452,106-C
686,106-C,-27.501262614640435,-58.7854668655149,106-C
687,106-C,-27.50267446234039,-58.78573215281538,106-C
688,106-C,-27.503946080940352,-58.78574765931524,106-C
689,106-C,-27.510181395288345,-58.78495969382635,106-C
690,106-C,-27.510844890140017,-58.78506210341276,106-C
691,106-C,-27.51179900213999,-58.784886167312216,106-C
692,106-C,-27.512580866139807,-58.783469122708766,106-C
693,106-C,-27.51397569863973,-58.78328891180815,106-C
694,106-C,-27.51623604643979,-58.78465700601112,106-C
695,106-C,-27.51815290383939,-58.78135001000304,106-C
696,106-C,-27.519217657039142,-58.77915680119768,106-C
697,106-C,-27.51843210503907,-58.778428497596046,106-C
698,106-C,-27.512411384039815,-58.78349301120884,106-C
699,106-C,-27.517386965539053,-58.77775593369457,106-C
700,106-C,-27.516337048339025,-58.77711446669316,106-C
701,106-C,-27.515287131139004,-58.776452882991755,106-C
702,106-C,-27.514180803738995,-58.775772020990246,106-C
703,106-C,-27.510758053640004,-58.784912235012406,106-C
704,106-C 106-A,-27.505443759340277,-58.78548446751442,106-C 106-A
705,106-C,-27.50419795714032,-58.78556124581476,106-C
706,106-C,-27.50285199104037,-58.785553199114894,106-C
707,106-C,-27.50147870004039,-58.78528548111442,106-C
708,106-C,-27.500406822340437,-58.78509730741412,106-C
709,106-C,-27.498611921540466,-58.78479706761364,106-C
710,106-C,-27.49740936994049,-58.78480620391381,106-C
711,106-C,-27.49665935724051,-58.78466907601357,106-C
712,106-C,-27.49595661844052,-58.78456723591342,106-C
713,106-C,-27.494888680140686,-58.785544733415854,106-C
714,106-C,-27.493490159640707,-58.78537315591562,106-C
715,106-C,-27.491877565240728,-58.78508439931514,106-C
716,106-C,-27.51907164423912,-58.77904565709744,106-C
717,106-C 110-B,-27.48839253754162,-58.792646636133526,106-C 110-B
718,106-C 106-A,-27.48764788924215,-58.79782899924594,106-C 106-A
719,106-C,-27.487446220742335,-58.79967771185037,106-C
720,106-C,-27.487175988142525,-58.80158576825492,106-C
721,106-C,-27.4868122135428,-58.80402439926074,106-C
722,106-C,-27.486496383443047,-58.806505693966685,106-C
723,106-C,-27.52268784873919,-58.78106502530179,106-C
724,106-C,-27.48560320784312,-58.8070959476682,106-C
725,106-C,-27.481198350043247,-58.80658993216752,106-C
726,106-C,-27.52161538423917,-58.780395227400334,106-C
727,106-C,-27.520575860639152,-58.77975342509893,106-C
728,106-C 106-B 106-A 102-A 102-B 108-A-B,-27.462577022707723,-58.841343335598665,106-C 106-B 106-A 102-A 102-B 108-A-B
729,106-C,-27.48044138044339,-58.8078495645706,106-C
730,106-C,-27.48188935414337,-58.80809331027102,106-C
731,106-C,-27.483964294343284,-58.80824661527113,106-C
732,106-C,-27.48529156864325,-58.80829866697109,106-C
733,106-C,-27.486716408342986,-58.80594192716533,106-C
734,106-C,-27.487023269842798,-58.8040566695608,106-C
735,106-C,-27.487340441042523,-58.801596748554914,106-C
736,106-C,-27.487613104442342,-58.799625995550215,106-C
737,106-C,-27.48782340634216,-58.79784618214595,106-C
738,106-C 110-B,-27.488656148441574,-58.7923888088329,106-C 110-B
739,106-C 110-B 102-A,-27.49000974194088,-58.78583927351716,106-C 110-B 102-A
740,106-C,-27.49159643624077,-58.78524407451555,106-C
741,106-C,-27.493372226240737,-58.78553526191602,106-C
742,106-C,-27.494905108740696,-58.78571781971628,106-C
743,106-C,-27.495889144140573,-58.784806203913995,106-C
744,106-C 106-B 106-A 102-A 102-B 103-D 103-C-ESPERANZA-PUERTO 103-A 103-B 105-C-250VIV 105-C-PERICHON 101-B 101-C 110-A 108-A-B 105-A 105-B,-27.461517607228032,-58.83851550881108,106-C 106-B 106-A 102-A 102-B 103-D 103-C-ESPERANZA-PUERTO 103-A 103-B 105-C-250VIV 105-C-PERICHON 101-B 101-C 110-A 108-A-B 105-A 105-B
745,104-A,-27.48665848944665,-58.84457076625708,104-A
746,104-A 110-A,-27.484449355046717,-58.844280584756646,104-A 110-A
747,104-A 110-A,-27.47527435614693,-58.84303067535476,104-A 110-A
748,104-A 110-A,-27.474601309132687,-58.84111976927964,104-A 110-A
749,104-A,-27.463007524745677,-58.824861056213074,104-A
750,104-A,-27.46160523234571,-58.82465293351274,104-A
751,104-A,-27.45971905264578,-58.82459291911281,104-A
752,104-A 104-C 104-D,-27.4614509214452,-58.81927887630001,104-A 104-C 104-D
753,104-A 104-C 104-D,-27.46424729204512,-58.81937493289991,104-A 104-C 104-D
754,104-A,-27.464267911545253,-58.82082240380333,104-A
755,104-A,-27.46427813744536,-58.82214070950646,104-A
756,104-A,-27.464251315345518,-58.823588850909914,104-A
757,104-A 110-A,-27.473870722646893,-58.842028451152544,104-A 110-A
758,104-A 110-A,-27.47488945924708,-58.84457017955844,104-A 110-A
759,104-A,-27.477143520647036,-58.844728178358565,104-A
760,104-A,-27.479702012746955,-58.84508541515911,104-A
761,104-A,-27.48173973724691,-58.84536084445952,104-A
762,104-A,-27.4933119603458,-58.83832096774146,104-A
763,104-A,-27.48898614394599,-58.83854116034249,104-A
764,101-B 101-C,-27.468543312057175,-58.84059808864448,101-B 101-C
765,104-D 103-A,-27.493353283145368,-58.83362039643029,104-D 103-A
766,104-D,-27.49465675294465,-58.82652377431327,104-D
767,104-D 103-A,-27.49274601424468,-58.82617718261268,104-D 103-A
768,104-D 110-A,-27.49070510464473,-58.82577585711196,104-D 110-A
769,104-D,-27.490375027218164,-58.82691767158798,104-D
770,104-D,-27.490131571519985,-58.829136685349,104-D
771,104-D,-27.4900019154716,-58.83063574673382,104-D
772,104-D 103-A,-27.48801510044529,-58.830687736223936,104-D 103-A
773,104-D,-27.485501954445446,-58.83136524542584,104-D
774,103-A,-27.49362222617169,-58.83187201801017,103-A
775,104-D,-27.48627996274569,-58.83404175473212,104-D
776,104-D,-27.48549390784592,-58.83626379723748,104-D
777,104-D 104-C,-27.48400905364608,-58.83750037944058,104-D 104-C
778,104-D 104-C,-27.481665557346147,-58.837198714740154,104-D 104-C
779,104-D 104-C,-27.4796358795462,-58.83692588383976,104-D 104-C
780,104-D,-27.494028277844976,-58.829899418221366,104-D
781,104-D 104-A 104-C,-27.46130189124621,-58.82990377682524,104-D 104-A 104-C
782,104-D 104-C,-27.46151068444597,-58.82718854301877,104-D 104-C
783,104-D 104-C,-27.460321460046,-58.82717907151889,104-D 104-C
784,104-D 104-C,-27.459423255245888,-58.82560235171526,104-D 104-C
785,104-D 103-A 110-B,-27.49447100994468,-58.82675293551384,104-D 103-A 110-B
786,104-D 104-A 104-C,-27.462933022712814,-58.81932123585271,104-D 104-A 104-C
787,104-D 104-C,-27.46427377884496,-58.81795109899652,104-D 104-C
788,104-D 104-C,-27.46308497354501,-58.817896448996535,104-D 104-C
789,104-D 104-C,-27.461833220045055,-58.8178519410966,104-D 104-C
790,104-D,-27.49607924564447,-58.82509072030969,104-D
791,104-D,-27.497346170344425,-58.825319462410086,104-D
792,104-D,-27.48572390724582,-58.83534162033528,104-D
793,104-D,-27.48579020804572,-58.83423126953262,104-D
794,104-D,-27.4912894909454,-58.83318252582948,104-D
795,104-D,-27.49220529764538,-58.83339115142988,104-D
796,104-D,-27.496990610044605,-58.82699919581412,104-D
797,104-D,-27.49588453404462,-58.826803394613776,104-D
798,103-C-ESPERANZA-PUERTO 103-B 103-A 106-A 105-C-PERICHON 106-B 106-C,-27.46489980875284,-58.8327134881288,103-C-ESPERANZA-PUERTO 103-B 103-A 106-A 105-C-PERICHON 106-B 106-C
799,103-A,-27.50690782644416,-58.82622739021111,103-A
800,103-A 104-C,-27.50309431194477,-58.83122778222344,103-A 104-C
801,103-A 104-C,-27.501456823344835,-58.8312142035236,103-A 104-C
802,109-A 109-B-YECOHA 103-A,-27.508446344892583,-58.815911081816914,109-A 109-B-YECOHA 103-A
803,103-A 104-C,-27.49884887794492,-58.83086015192308,103-A 104-C
804,103-A,-27.49879934094481,-58.8299006754208,103-A
805,103-A,-27.498918112444716,-58.82899752541862,103-A
806,103-A 104-C,-27.499084912344596,-58.827703359515546,103-A 104-C
807,103-A 104-C,-27.499002099144377,-58.82550327761032,103-A 104-C
808,103-A 104-C 110-B,-27.497121451544647,-58.82743597681512,103-A 104-C 110-B
809,103-A 104-C,-27.496908048244748,-58.828637438818006,103-A 104-C
810,109-A 109-B-YECOHA 103-A,-27.508645005725437,-58.81756646619787,109-A 109-B-YECOHA 103-A
811,103-A 104-C 110-B,-27.49675465944486,-58.829583588120286,103-A 104-C 110-B
812,103-A 104-C,-27.49659783404495,-58.830507190022495,103-A 104-C
813,103-A 104-C 110-B,-27.496282590645123,-58.83222774322662,103-A 104-C 110-B
814,103-A,-27.492566892945213,-58.831630281225664,103-A
815,103-A,-27.490930913145235,-58.83126156122498,103-A
816,103-A,-27.48976620043412,-58.83077145486244,103-A
817,103-A,-27.48497490034544,-58.83100038112503,103-A
818,103-A,-27.48292435154548,-58.830757892724726,103-A
819,103-A,-27.480024548345565,-58.83045647942432,103-A
820,103-A,-27.478464424745628,-58.830272999624086,103-A
821,103-A 103-B 103-C-ESPERANZA-PUERTO 103-D 101-B 101-C,-27.466163584855867,-58.83909057825162,103-A 103-B 103-C-ESPERANZA-PUERTO 103-D 101-B 101-C
822,103-A,-27.47681629114578,-58.83149239892718,103-A
823,103-A,-27.479060797145728,-58.83180135582766,103-A
824,103-A,-27.481368586545685,-58.83211366552813,103-A
825,103-A,-27.48362549774565,-58.83240334412854,103-A
826,103-A 104-D,-27.48574502964555,-58.83254022062862,103-A 104-D
827,103-A,-27.487153859945497,-58.832648933928695,103-A
828,103-A 104-D,-27.488162286645483,-58.83285286562907,103-A 104-D
829,103-A,-27.49067509744544,-58.83318646532957,103-A
830,103-A 109-A 109-B-YECOHA,-27.50947940653309,-58.826252629547135,103-A 109-A 109-B-YECOHA
831,103-A 110-B,-27.494150569744885,-58.82907874601939,103-A 110-B
832,103-A,-27.49252758184458,-58.8249602141098,103-A
833,103-A,-27.493053630144527,-58.82464421630899,103-A
834,103-A,-27.49486566896551,-58.82489436992599,103-A
835,103-A,-27.495601264038388,-58.82503033530346,103-A
836,103-A 110-B 104-C,-27.497312894244445,-58.825455165510405,103-A 110-B 104-C
837,103-A 110-B,-27.4991891832444,-58.82575414791091,103-A 110-B
838,103-A,-27.4989400730446,-58.82770059351554,103-A
839,103-A,-27.49879816744473,-58.828964919818574,103-A
840,103-A,-27.498726921244813,-58.829883324920765,103-A
841,103-A,-27.498580070344907,-58.830813380922976,103-A
842,103-A 104-C,-27.50297830634481,-58.831534392224185,103-A 104-C
843,103-A 104-C,-27.503608876944444,-58.82792824601555,103-A 104-C
844,103-A 104-C,-27.50380325324429,-58.82641849761194,103-A 104-C
845,103-A 104-C,-27.505225075544224,-58.82633157731157,103-A 104-C
846,103-A 103-C-ESPERANZA-PUERTO 103-B 105-C-PERICHON 106-A 106-B 106-C,-27.461395437035737,-58.83231041672095,103-A 103-C-ESPERANZA-PUERTO 103-B 105-C-PERICHON 106-A 106-B 106-C
847,103-A,-27.47005066249908,-58.82938301751685,103-A
848,103-C-ESPERANZA-PUERTO 103-C-ESPERANZA-MONTAÃ‘A,-27.54740029773918,-58.790662807321596,103-C-ESPERANZA-PUERTO 103-C-ESPERANZA-MONTAÃ‘A
849,103-C-ESPERANZA-PUERTO,-27.527188344040425,-58.795492124635565,103-C-ESPERANZA-PUERTO
850,106-A,-27.505328843440477,-58.787380705518935,106-A
851,106-A,-27.501739880139745,-58.778689929198734,106-A
852,106-A,-27.500711253039466,-58.77556808929143,106-A
853,106-A,-27.496338917039772,-58.777045651195486,106-A
854,106-A,-27.49445852093992,-58.77784461419762,106-A
855,106-A,-27.48861113764154,-58.7917551369314,106-A
856,106-A,-27.50554501274031,-58.78581580421521,106-A
857,106-A,-27.48662118994233,-58.799170439049256,106-A
858,106-A,-27.485576301942352,-58.79898360644892,106-A
859,106-A,-27.483381752042373,-58.79856476274821,106-A
860,106-A,-27.505783645540102,-58.78390397591062,106-A
861,106-A,-27.50613090783985,-58.78144045070473,106-A
862,106-A,-27.50631262743973,-58.780261787501885,106-A
863,106-A,-27.50498761623971,-58.779751245800846,106-A
864,102-B,-27.491626359642627,-58.8041974016606,102-B
865,103-B,-27.52121129274024,-58.7911229738259,103-B
866,103-B,-27.520145282240275,-58.79124752892634,103-B
867,103-B,-27.519111793640324,-58.79135104542669,103-B
868,103-B,-27.517874540840403,-58.79148641312716,103-B
869,103-B,-27.517618557540203,-58.78938523762222,103-B
870,103-B,-27.51871164154015,-58.789300664221855,103-B
871,103-B 103-C-ESPERANZA-MONTAÑA,-27.523489493940367,-58.79341550813108,103-B 103-C-ESPERANZA-MONTAÑA
872,103-B,-27.51974337004011,-58.7891957228215,103-B
873,105-A 105-B 105-C-250VIV 105-C-PERICHON 109-A 109-B-YECOHA,-27.468457382379512,-58.802719194433294,105-A 105-B 105-C-250VIV 105-C-PERICHON 109-A 109-B-YECOHA
874,104-A 104-C 104-D 108-A-B,-27.461743791357573,-58.8364598967678,104-A 104-C 104-D 108-A-B
875,106-C 110-B 102-A,-27.48940658024128,-58.78949361562592,106-C 110-B 102-A
876,106-C 110-B 102-A,-27.489683266841077,-58.787619925021446,106-C 110-B 102-A
877,106-C 106-A 102-A,-27.48947066541789,-58.787777187172814,106-C 106-A 102-A
878,106-C 106-A 110-B 102-A,-27.489763801347515,-58.7860971223231,106-C 106-A 110-B 102-A
879,106-B,-27.487804702387056,-58.7965148708729,106-B
880,104-B,-27.468460824857036,-58.83937649393412,104-B
881,108-A-B,-27.465961189072974,-58.82323379751308,108-A-B
882,108-A-B 102-B 110-B,-27.484890319302284,-58.8160488444958,108-A-B 102-B 110-B
883,108-A-B 108-C,-27.508910234780743,-58.79279672842783,108-A-B 108-C
884,102-A 102-B 102-C,-27.467175562775907,-58.838002331247054,102-A 102-B 102-C
885,102-A,-27.484523666823048,-58.78331166728707,102-A
886,102-A 102-C,-27.48373352946037,-58.78745084067118,102-A 102-C
887,102-B 108-A-B,-27.49133476530937,-58.79990424085656,102-B 108-A-B
888,104-C 103-A,-27.500166292257425,-58.83106946489749,104-C 103-A
889,104-C 104-D,-27.477223453261782,-58.83661294735609,104-C 104-D
890,104-C,-27.459679852133608,-58.82176250674104,104-C
891,104-C 104-D,-27.46157469450484,-58.81904149481929,104-C 104-D
892,104-C 104-D,-27.461296063351607,-58.8290296529544,104-C 104-D
893,104-D 103-A 110-B,-27.493731095872253,-58.83210991083767,104-D 103-A 110-B
894,104-D 103-A,-27.489289115810035,-58.832913901446936,104-D 103-A
895,105-C-PERICHON 109-A 109-B-YECOHA,-27.450031771849392,-58.75344585276813,105-C-PERICHON 109-A 109-B-YECOHA
896,105-C-PERICHON 109-A 109-B-YECOHA,-27.45048412313914,-58.75332897234489,105-C-PERICHON 109-A 109-B-YECOHA
897,105-C-PERICHON 109-A 109-B-YECOHA,-27.451765104653443,-58.75549799822442,105-C-PERICHON 109-A 109-B-YECOHA
898,105-C-PERICHON 109-A 109-B-YECOHA,-27.45377368493947,-58.757736428454926,105-C-PERICHON 109-A 109-B-YECOHA
899,105-C-PERICHON 109-A 109-B-YECOHA,-27.45904015851245,-58.76509643756056,105-C-PERICHON 109-A 109-B-YECOHA
900,105-C-PERICHON 105-C-250VIV,-27.459601454540245,-58.767807033678096,105-C-PERICHON 105-C-250VIV
901,106-A,-27.50596544025397,-58.78270779537328,106-A
902,106-A,-27.502142918987317,-58.779511216744325,106-A
903,106-A,-27.501857395324535,-58.779485926661856,106-A
904,106-A 110-B,-27.490445831535236,-58.781353582490375,106-A 110-B
905,106-A 110-B 102-A,-27.490118057433307,-58.783745922092734,106-A 110-B 102-A
906,106-A 106-C 110-B 102-A,-27.489223734989693,-58.78938373325726,106-A 106-C 110-B 102-A
907,106-A,-27.484286850416822,-58.798764680272846,106-A
908,102-A 106-A,-27.483983524024023,-58.78991378586592,102-A 106-A
909,106-B,-27.500484503039917,-58.79219672546978,106-B
910,106-B,-27.500325419504293,-58.792244129663736,106-B
911,106-B,-27.493989205501165,-58.796099663766086,106-B
912,106-B,-27.496799232064888,-58.790448373953055,106-B
913,106-C,-27.515992559573437,-58.77721381450814,106-C
914,106-C,-27.519504437516694,-58.77910093814188,106-C
915,106-C,-27.518032169087764,-58.78128674166761,106-C
916,106-C,-27.516447942021465,-58.78445000027167,106-C
917,106-C,-27.51352208845405,-58.78282272448802,106-C
918,106-C,-27.505328595744043,-58.785748210683856,106-C
919,104-A 104-C 104-D 108-A-B,-27.46123043755495,-58.83467175150043,104-A 104-C 104-D 108-A-B
920,104-A 104-D 104-C 108-A-B,-27.461269235368608,-58.832213762043054,104-A 104-D 104-C 108-A-B
921,108-C,-27.51058994541731,-58.80018547838496,108-C
922,108-C,-27.510714135809376,-58.79924024800312,108-C
923,108-C,-27.50981242471024,-58.79817295598396,108-C
924,108-C,-27.504470853374634,-58.80129844584709,108-C
925,108-C,-27.504384070603912,-58.80225463287652,108-C
926,108-C,-27.490258676990347,-58.81674964614523,108-C
927,108-C,-27.487097929170496,-58.816189826641214,108-C
928,108-C,-27.48749432631558,-58.816512833957844,108-C
929,108-C,-27.4911211415572,-58.8172084796051,108-C
930,109-A 109-B-YECOHA 103-A,-27.508071346734788,-58.81318669777059,109-A 109-B-YECOHA 103-A
931,105-C-250VIV 105-C-PERICHON 109-A 109-B-YECOHA,-27.461222440776897,-58.76850514864607,105-C-250VIV 105-C-PERICHON 109-A 109-B-YECOHA
932,101-B 101-C 110-A,-27.47312054617818,-58.804422144292936,101-B 101-C 110-A
933,101-B 101-C 110-A,-27.4739393502312,-58.801553511599685,101-B 101-C 110-A
934,101-B 101-C 110-A,-27.474832927102685,-58.79852451533632,101-B 101-C 110-A
935,101-B 101-C 110-A,-27.475364424108317,-58.795938068490926,101-B 101-C 110-A
936,101-B 101-C 110-A,-27.47579115348779,-58.79358061501984,101-B 101-C 110-A
937,101-B 101-C 110-A,-27.476211426147728,-58.79106939856954,101-B 101-C 110-A
938,101-B 101-C 110-A,-27.476102176480342,-58.78843862520086,101-B 101-C 110-A
939,101-B 101-C 110-A,-27.47457032787525,-58.7881591488454,101-B 101-C 110-A
940,101-B 101-C 110-A,-27.47318148024254,-58.787963565549035,101-B 101-C 110-A
941,101-B 101-C,-27.47221625894036,-58.787985521200014,101-B 101-C
942,101-B 101-C,-27.471029445904392,-58.78765101286808,101-B 101-C
943,101-B 101-C,-27.47707060180717,-58.78645119092052,101-B 101-C
944,101-B 101-C,-27.478343247160275,-58.78264873567354,101-B 101-C
945,101-B 101-C,-27.483164006337557,-58.782510273090764,101-B 101-C
946,101-B 101-C,-27.490343264818968,-58.77957110313926,101-B 101-C
947,101-B 101-C,-27.49421705930877,-58.77762816115768,101-B 101-C
948,101-B 101-C,-27.49363431980706,-58.77491960489724,101-B 101-C
949,101-B 101-C,-27.49415149339497,-58.773064941272,101-B 101-C
950,101-B 101-C,-27.49537782435347,-58.77326786277277,101-B 101-C
951,101-B 101-C,-27.496330015925764,-58.7723456394598,101-B 101-C
952,101-B 101-C,-27.494255780849294,-58.771063853919614,101-B 101-C
953,101-B 101-C,-27.492823859846716,-58.77174639083046,101-B 101-C
954,101-B 101-C,-27.490595141988617,-58.77138368753292,101-B 101-C
955,101-B 101-C,-27.48832084857513,-58.77103859556964,101-B 101-C
956,101-B 101-C,-27.48627025102369,-58.77070812387608,101-B 101-C
957,101-B 101-C,-27.485028724787863,-58.77051110949579,101-B 101-C
958,101-B 101-C,-27.48221020321342,-58.77067914320915,101-B 101-C
959,101-B 101-C,-27.4809544913162,-58.77060193159532,101-B 101-C
960,101-B 101-C,-27.480476460034662,-58.77170677940766,101-B 101-C
961,101-B 101-C,-27.480121336203336,-58.774075008073446,101-B 101-C
962,101-B 101-C,-27.479831690516058,-58.77580442715367,101-B 101-C
963,101-B 101-C,-27.4795645464317,-58.7777842599894,101-B 101-C
964,101-B 101-C,-27.479273705219114,-58.77938264308403,101-B 101-C
965,101-B 101-C,-27.477242544745334,-58.78650342769166,101-B 101-C
966,101-B 101-C,-27.47689043553307,-58.788079639829846,101-B 101-C
967,101-B 101-C 110-A,-27.476294784732456,-58.79145302986314,101-B 101-C 110-A
968,101-B 101-C 110-A,-27.4760448239304,-58.793096463781374,101-B 101-C 110-A
969,101-B 101-C,-27.475554518667867,-58.79573945955581,101-B 101-C
970,101-B 101-C 110-A,-27.474776611229437,-58.79921159536315,101-B 101-C 110-A
971,101-B 101-C,-27.474371831495787,-58.80058891749727,101-B 101-C
972,101-B 101-C 110-A,-27.47347820870587,-58.803617886145,101-B 101-C 110-A
973,101-B 101-C 110-A,-27.4709367188531,-58.787797291764925,101-B 101-C 110-A
974,101-B 101-C 110-A,-27.473783350303368,-58.788227575912266,101-B 101-C 110-A
975,101-B 101-C 110-A,-27.47609342801038,-58.78860108239327,101-B 101-C 110-A
976,110-B,-27.48751098952772,-58.82219438697925,110-B
977,110-B,-27.485160683286587,-58.82409824055012,110-B
978,110-B,-27.487963313453008,-58.80788328191916,110-B
979,110-B,-27.49125066551109,-58.7995674512139,110-B
980,110-B,-27.488117248869468,-58.799544585791466,110-B
981,110-B,-27.48778107111328,-58.79848230037512,110-B
982,102-A 110-B,-27.49028771443611,-58.78369518320554,102-A 110-B
983,102-A 110-B,-27.49064760640634,-58.78136886687006,102-A 110-B
984,110-B,-27.488005235147646,-58.79523587749282,110-B
985,110-B,-27.488038078771822,-58.79778807493504,110-B
986,110-B,-27.489180377150944,-58.79973132114984,110-B
987,110-B,-27.491193099849227,-58.79972654898397,110-B
988,110-B,-27.486191363065327,-58.82075237975963,110-B
989,110-B,-27.491076374627102,-58.8199453198116,110-B
990,110-B,-27.49431666672356,-58.81797562876876,110-B
991,110-B,-27.496082144565555,-58.81675450042927,110-B
992,110-B,-27.49910785857902,-58.81734038759596,110-B
993,110-B,-27.499749720196142,-58.81872957244813,110-B
994,110-B,-27.499877571543244,-58.8239249277692,110-B
995,110-B,-27.49935939467889,-58.8254404420955,110-B
996,110-B,-27.493254903583,-58.83836310508233,110-B
997,110-B,-27.49318218302224,-58.840610239760125,110-B
998,110-B,-27.48640157300688,-58.823002707515066,110-B
999,VUELTA-ORIGINAL,-27.48456137642922,-58.823206013016886,VUELTA-ORIGINAL
1000,VUELTA-ORIGINAL,-27.48472944927704,-58.82085120891247,VUELTA-ORIGINAL
1001,VUELTA-ORIGINAL,-27.484935612486883,-58.818199728239854,VUELTA-ORIGINAL
1002,VUELTA-ORIGINAL,-27.48510607170523,-58.81613545241551,VUELTA-ORIGINAL
1003,110-B,-27.48259651974268,-58.823990332680395,110-B
1004,110-B,-27.48248630817823,-58.82057314512851,110-B
1005,110-A,-27.48293400237725,-58.84933262586798,110-A
1006,110-A 104-A,-27.48369090970707,-58.84808131094353,110-A 104-A
1007,110-A,-27.48432080692764,-58.84560778833638,110-A
1008,110-A,-27.482985602742783,-58.84543939653598,110-A
1009,110-A,-27.480821246256856,-58.845160014195535,110-A
1010,110-A,-27.478354112476428,-58.844826828782274,110-A
1011,110-A,-27.476243101803256,-58.84454691004349,110-A
1012,110-A,-27.47275173475184,-58.8409424975773,110-A
1013,110-A,-27.48673486929584,-58.84879542107564,110-A
1014,110-A,-27.48611202510037,-58.84721230134825,110-A
1015,110-A,-27.485604010242373,-58.84599833675991,110-A
1016,110-A,-27.485495565732336,-58.84456371095887,110-A
1017,110-A,-27.484850774746736,-58.84340247158612,110-A
1018,110-A,-27.485167626254228,-58.840567541062086,110-A
1019,110-A,-27.485025982952813,-58.840643090950536,110-A
1020,110-A,-27.485161928290346,-58.839274285911046,110-A
1021,110-A 104-D,-27.485657091569397,-58.83650583305774,110-A 104-D
1022,110-A 104-D,-27.485833975247093,-58.83517646763006,110-A 104-D
1023,110-A,-27.48583352369196,-58.834515568087184,110-A
1024,104-D 110-A,-27.485909364268444,-58.8326517023972,104-D 110-A
1025,110-A,-27.48491189828493,-58.83125496286664,110-A
1026,110-A,-27.48726182415899,-58.83093957866664,110-A
1027,110-A 103-A,-27.486924344113863,-58.83068675527436,110-A 103-A
1028,110-A,-27.487907312680697,-58.83096124909556,110-A
1029,105-A,-27.44331890632281,-58.77987321656101,105-A
1030,105-A 105-C-250VIV 105-C-PERICHON,-27.46318631074097,-58.77632757359788,105-A 105-C-250VIV 105-C-PERICHON
1031,105-A 105-C-250VIV 105-C-PERICHON,-27.463691796505,-58.7781836250594,105-A 105-C-250VIV 105-C-PERICHON
1032,105-A 105-C-250VIV 105-C-PERICHON 109-A 109-B-YECOHA,-27.46427417566629,-58.78049519728148,105-A 105-C-250VIV 105-C-PERICHON 109-A 109-B-YECOHA
1033,105-A 105-C-250VIV 105-C-PERICHON 109-A 109-B-YECOHA 110-A,-27.46482520114434,-58.782679420770265,105-A 105-C-250VIV 105-C-PERICHON 109-A 109-B-YECOHA 110-A
1034,105-A 105-C-250VIV 105-C-PERICHON 109-A 109-B-YECOHA,-27.46510649744431,-58.78379412192932,105-A 105-C-250VIV 105-C-PERICHON 109-A 109-B-YECOHA
1035,105-A 105-C-250VIV 105-C-PERICHON 109-A 109-B-YECOHA,-27.46610604953235,-58.787866779494685,105-A 105-C-250VIV 105-C-PERICHON 109-A 109-B-YECOHA
1036,105-A 105-B 105-C-250VIV 105-C-PERICHON 109-A 109-B-YECOHA,-27.466911139721923,-58.79112792296459,105-A 105-B 105-C-250VIV 105-C-PERICHON 109-A 109-B-YECOHA
1037,105-A 105-B 105-C-250VIV 105-C-PERICHON 109-A 109-B-YECOHA,-27.46732752499895,-58.79276322495404,105-A 105-B 105-C-250VIV 105-C-PERICHON 109-A 109-B-YECOHA
1038,105-A 105-B 105-C-250VIV 105-C-PERICHON 109-A 109-B-YECOHA,-27.468238006440576,-58.79643090890566,105-A 105-B 105-C-250VIV 105-C-PERICHON 109-A 109-B-YECOHA
1039,105-A,-27.443857893442225,-58.78163248011284,105-A
1040,105-A 105-B 105-C-250VIV 105-C-PERICHON 109-A 109-B-YECOHA,-27.46853292651152,-58.7975569841549,105-A 105-B 105-C-250VIV 105-C-PERICHON 109-A 109-B-YECOHA
1041,105-A 105-B 105-C-250VIV 105-C-PERICHON 109-A 109-B-YECOHA,-27.46890555734807,-58.799066698032405,105-A 105-B 105-C-250VIV 105-C-PERICHON 109-A 109-B-YECOHA
1042,105-A,-27.46852684034359,-58.80532703076607,105-A
1043,105-A,-27.47141507654356,-58.80611970736759,105-A
1044,105-A,-27.471846157844453,-58.81553861958989,105-A
1045,105-A,-27.47168899714459,-58.81682666669299,105-A
1046,110-A,-27.489010160033352,-58.8309894843834,110-A
1047,110-A 104-D 103-A,-27.488667503601267,-58.83072531654919,110-A 104-D 103-A
1048,110-A,-27.48976546157676,-58.830776391625605,110-A
1049,110-A,-27.490830199569235,-58.83110700569909,110-A
1050,110-A 110-B,-27.482802564266773,-58.81793989194862,110-A 110-B
1051,110-A 110-B,-27.48307908512323,-58.815800456649285,110-A 110-B
1052,110-A,-27.48292671323773,-58.815807783726726,110-A
1053,110-A,-27.48090343001557,-58.81509448836582,110-A
1054,110-A,-27.4715649820895,-58.81040918084822,110-A
1055,110-A,-27.471820135258728,-58.81053746468739,110-A
1056,105-A 101-B 101-C 110-A,-27.47208668006032,-58.80843251517812,105-A 101-B 101-C 110-A
1057,110-A,-27.475755051166768,-58.794538205802645,110-A
1058,110-A,-27.476571643299867,-58.78968408397336,110-A
1059,110-A,-27.47214424165309,-58.78780413624023,110-A
1060,110-A,-27.47066608541352,-58.78756396504388,110-A
1061,110-A,-27.46873279009465,-58.7872803614589,110-A
1062,110-A,-27.4673436430792,-58.787050621170565,110-A
1063,110-A,-27.466757524167807,-58.7871367880385,110-A
1064,110-A,-27.4659647404957,-58.78653880341966,110-A
1065,110-A,-27.46537185413112,-58.78410156773696,110-A
1066,110-A,-27.465214677801416,-58.78414031877323,110-A
1067,110-A,-27.464779773031644,-58.781761187603855,110-A
1068,110-A,-27.464583595796288,-58.78169783722085,110-A
1069,110-A,-27.463888293271797,-58.77831051398324,110-A
1070,110-A,-27.463440238468216,-58.77646987579212,110-A
1071,110-A,-27.46326254190538,-58.776486078513535,110-A
1072,110-A,-27.460731053583295,-58.775494429777886,110-A
1073,110-A,-27.459367696421506,-58.77588827932638,110-A
1074,110-A,-27.458517105109028,-58.77623373695528,110-A
1075,105-A 110-A,-27.45465319111651,-58.77771173435004,105-A 110-A
1076,105-A 110-A,-27.45326499629611,-58.77817130651562,105-A 110-A
1077,110-A,-27.451586479218182,-58.778551478545005,110-A
1078,110-A,-27.446003500070304,-58.78071598533053,110-A
1079,110-A 104-A,-27.477575926964303,-58.843340309155614,110-A 104-A
1080,110-A 104-A,-27.479936415443408,-58.84368027051933,110-A 104-A
1081,110-A 104-A,-27.48229652426056,-58.843974670177445,110-A 104-A
1082,110-A 104-A 104-C 104-D 108-A-B,-27.469399857808806,-58.839304425602,110-A 104-A 104-C 104-D 108-A-B
1083,104-A,-27.47307755449329,-58.83881633549021,104-A
1084,104-D,-27.46157812348788,-58.82033995057923,104-D
1085,104-D,-27.46154439982336,-58.82153661895979,104-D
1086,104-D,-27.46143131909132,-58.82365866942103,104-D
1087,110 C- SANTA CATALINA,-27.525115551959765,-58.80781400715746,110 C- SANTA CATALINA
1088,110 C- SANTA CATALINA,-27.527529642452613,-58.80623552853695,110 C- SANTA CATALINA
1089,110 C- SANTA CATALINA,-27.52640147519601,-58.803002908275694,110 C- SANTA CATALINA
1090,103-D,-27.572566710535583,-58.763943143954805,103-D
1091,105-A,-27.471515240244745,-58.818427023496795,105-A
1092,105-A 105-B,-27.471355313544944,-58.82025972660115,105-A 105-B
1093,105-A 105-B,-27.47113947954516,-58.82261286210678,105-A 105-B
1094,105-A 105-B,-27.470894560345364,-58.82461286801156,105-A 105-B
1095,105-A 105-B,-27.470659447945597,-58.827020821217296,105-A 105-B
1096,104-A 105-A 105-B 104-C 104-D 108-C 108-A-B,-27.467766141844137,-58.83805120488234,104-A 105-A 105-B 104-C 104-D 108-C 108-A-B
1097,105-A 105-B 102-C 102-A 102-B 103-D 104-A 104-C 104-D 108-A-B,-27.463897515246856,-58.837682099143386,105-A 105-B 102-C 102-A 102-B 103-D 104-A 104-C 104-D 108-A-B
1098,105-A 105-B 105-C-PERICHON 105-C-250VIV 108-C 104-A 104-B 104-C 104-D 110-A,-27.46527539439506,-58.83911492358849,105-A 105-B 105-C-PERICHON 105-C-250VIV 108-C 104-A 104-B 104-C 104-D 110-A
1099,109-A 109-B-YECOHA 103-A,-27.508508313068376,-58.81757756506581,109-A 109-B-YECOHA 103-A
1100,110 C- SANTA CATALINA,-27.52360824493848,-58.80270232738274,110 C- SANTA CATALINA
1101,110 C- SANTA CATALINA,-27.523481600537952,-58.806444672775264,110 C- SANTA CATALINA
1102,105-A 105-B 105-C-250VIV 105-C-PERICHON 104-B 103-A 103-D 103-B 103-C-ESPERANZA-PUERTO,-27.468757007346543,-58.83617838563925,105-A 105-B 105-C-250VIV 105-C-PERICHON 104-B 103-A 103-D 103-B 103-C-ESPERANZA-PUERTO
1103,105-A 105-B 105-C-250VIV 105-C-PERICHON 104-B 103-A 103-B 103-C-ESPERANZA-PUERTO 103-D,-27.469118267446177,-58.83260459363072,105-A 105-B 105-C-250VIV 105-C-PERICHON 104-B 103-A 103-B 103-C-ESPERANZA-PUERTO 103-D
1104,105-A 110-A,-27.452769700541573,-58.77850519200434,105-A 110-A
1105,109-A 109-B-YECOHA 103-A,-27.508819815348385,-58.82006835237104,109-A 109-B-YECOHA 103-A
1106,109-A 109-B-YECOHA 103-A,-27.509034487325945,-58.82210801735603,109-A 109-B-YECOHA 103-A
1107,109-A 109-B-YECOHA 103-A,-27.509219600992736,-58.82394196093384,109-A 109-B-YECOHA 103-A
1108,109-A 109-B-YECOHA 104-C,-27.50979162014437,-58.82975499801916,109-A 109-B-YECOHA 104-C
1109,109-A 109-B-YECOHA 103-B 103-D 103-C-ESPERANZA-PUERTO 110-B,-27.49808637624342,-58.81508465578566,109-A 109-B-YECOHA 103-B 103-D 103-C-ESPERANZA-PUERTO 110-B
1110,109-A 109-B-YECOHA 103-B 103-D 103-C-ESPERANZA-PUERTO 110-B,-27.494008161243848,-58.81790005319285,109-A 109-B-YECOHA 103-B 103-D 103-C-ESPERANZA-PUERTO 110-B
1111,109-A 109-B-YECOHA 103-B 103-D 103-C-ESPERANZA-PUERTO,-27.491994325144063,-58.819231099396255,109-A 109-B-YECOHA 103-B 103-D 103-C-ESPERANZA-PUERTO
1112,109-A 109-B-YECOHA 103-B 103-D 103-C-ESPERANZA-PUERTO,-27.489753339544247,-58.82039693839929,109-A 109-B-YECOHA 103-B 103-D 103-C-ESPERANZA-PUERTO
1113,109-A 109-B-YECOHA 103-C-ESPERANZA-PUERTO 103-B 103-D 110-B,-27.486369843247807,-58.8231080931923,109-A 109-B-YECOHA 103-C-ESPERANZA-PUERTO 103-B 103-D 110-B
1114,109-A 109-B-YECOHA,-27.50960012786873,-58.826682083084336,109-A 109-B-YECOHA
1115,109-A 109-B-YECOHA 103-D 103-B 103-C-ESPERANZA-PUERTO,-27.484855039144797,-58.824268204209055,109-A 109-B-YECOHA 103-D 103-B 103-C-ESPERANZA-PUERTO
1116,109-A 109-B-YECOHA 103-B 103-D 103-C-ESPERANZA-PUERTO,-27.482156653045102,-58.826366865114366,109-A 109-B-YECOHA 103-B 103-D 103-C-ESPERANZA-PUERTO
1117,109-A 109-B-YECOHA 103-B 103-D 103-C-ESPERANZA-PUERTO,-27.479529596945383,-58.82841188181957,109-A 109-B-YECOHA 103-B 103-D 103-C-ESPERANZA-PUERTO
1118,109-A 109-B-YECOHA 103-D 103-C-ESPERANZA-PUERTO 103-B,-27.4778234605456,-58.82979891912305,109-A 109-B-YECOHA 103-D 103-C-ESPERANZA-PUERTO 103-B
1119,109-A 109-B-YECOHA 102-C 102-A 106-C 102-A 106-A,-27.47622352294576,-58.83112443332636,109-A 109-B-YECOHA 102-C 102-A 106-C 102-A 106-A
1120,109-A 109-B-YECOHA 106-A 106-C,-27.474781926526678,-58.83378379933839,109-A 109-B-YECOHA 106-A 106-C
1121,109-A 109-B-YECOHA 106-A 106-C,-27.47221504534616,-58.83349223713246,109-A 109-B-YECOHA 106-A 106-C
1122,109-A 109-B-YECOHA 103-A,-27.5093194807366,-58.823937319006205,109-A 109-B-YECOHA 103-A
1123,109-A 109-B-YECOHA 103-A,-27.509118661865383,-58.822106964648,109-A 109-B-YECOHA 103-A
1124,109-A 109-B-YECOHA 110-A 105-A 105-C-250VIV 105-C-PERICHON,-27.465621182991,-58.785957709389095,109-A 109-B-YECOHA 110-A 105-A 105-C-250VIV 105-C-PERICHON
1125,109-A 109-B-YECOHA 103-B 103-D 103-C-ESPERANZA-PUERTO,-27.507465306742613,-58.81049212717363,109-A 109-B-YECOHA 103-B 103-D 103-C-ESPERANZA-PUERTO
1126,102-C,-27.493856951733875,-58.71804476415558,102-C
1127,102-C,-27.491470288637167,-58.74911455142971,102-C
1128,102-C,-27.49079319843759,-58.75305312393916,102-C
1129,102-C,-27.490120802137987,-58.75683453574824,102-C
1130,102-C,-27.48806371553873,-58.76328591896383,102-C
1131,102-C,-27.48711127983908,-58.76622335697091,102-C
1132,102-C,-27.48594619533949,-58.77014944038039,102-C
1133,102-C,-27.485186375739968,-58.77487700139172,102-C
1134,102-C,-27.484501741940463,-58.77937406010248,102-C
1135,102-C 102-A,-27.48392925794105,-58.78518188081636,102-C 102-A
1136,102-C,-27.492857493533933,-58.71795843055552,102-C
1137,102-C 102-A,-27.48308000354179,-58.792401633133615,102-C 102-A
1138,102-C 102-A 106-B 106-A,-27.481278732542453,-58.798573312248486,102-C 102-A 106-B 106-A
1139,102-C,-27.491916122034027,-58.71852731025697,102-C
1140,103-D,-27.56647273163373,-58.743343275806474,103-D
1141,108-C,-27.46700175304603,-58.83015204872514,108-C
1142,108-C,-27.46721113294575,-58.827396917218586,108-C
1143,108-C,-27.46741783074548,-58.824503065111706,108-C
1144,108-C 102-A,-27.472873108544764,-58.81907854879817,108-C 102-A
1145,108-A-B 110-A,-27.47808522744411,-58.81450311928669,108-A-B 110-A
1146,108-A-B 110-A,-27.475317774444157,-58.8138199103854,108-A-B 110-A
1147,108-A-B 110-A,-27.473380755187367,-58.813246537390405,108-A-B 110-A
1148,108-A-B 105-C-PERICHON 105-C-250VIV 105-B 109-A 109-B-YECOHA 104-C,-27.46743476400032,-58.81321669308272,108-A-B 105-C-PERICHON 105-C-250VIV 105-B 109-A 109-B-YECOHA 104-C
1149,108-A-B 108-C,-27.508358147141355,-58.797724141643165,108-A-B 108-C
1150,108-A-B 105-C-250VIV 105-B 105-C-PERICHON 104-C,-27.4672198150688,-58.81611538251625,108-A-B 105-C-250VIV 105-B 105-C-PERICHON 104-C
1151,108-A-B 105-C-PERICHON 105-C-250VIV 109-A 109-B-YECOHA,-27.466759492066664,-58.81846966690895,108-A-B 105-C-PERICHON 105-C-250VIV 109-A 109-B-YECOHA
1152,108-A-B 105-C-PERICHON 105-C-250VIV 109-A 109-B-YECOHA,-27.466627485543462,-58.82087253366635,108-A-B 105-C-PERICHON 105-C-250VIV 109-A 109-B-YECOHA
1153,108-A-B,-27.46517910824548,-58.82371189721008,108-A-B
1154,103-B 103-C-ESPERANZA-MONTAÃ‘A,-27.5249673073406,-58.796430478738074,103-B 103-C-ESPERANZA-MONTAÃ‘A
1155,103-C-ESPERANZA-MONTAÃ‘A 103-C-ESPERANZA-PUERTO,-27.531254908139868,-58.791339729825175,103-C-ESPERANZA-MONTAÃ‘A 103-C-ESPERANZA-PUERTO
1156,103-C-ESPERANZA-MONTAÃ‘A 103-C-ESPERANZA-PUERTO,-27.532466260839808,-58.791257922424855,103-C-ESPERANZA-MONTAÃ‘A 103-C-ESPERANZA-PUERTO
1157,103-C-ESPERANZA-MONTAÃ‘A 103-C-ESPERANZA-PUERTO,-27.53405178163973,-58.79105357162417,103-C-ESPERANZA-MONTAÃ‘A 103-C-ESPERANZA-PUERTO
1158,103-C-ESPERANZA-MONTAÃ‘A 103-C-ESPERANZA-PUERTO,-27.53515525913968,-58.7909165275237,103-C-ESPERANZA-MONTAÃ‘A 103-C-ESPERANZA-PUERTO
1159,103-C-ESPERANZA-MONTAÃ‘A 103-C-ESPERANZA-PUERTO,-27.536447748639613,-58.79077923192322,103-C-ESPERANZA-MONTAÃ‘A 103-C-ESPERANZA-PUERTO
1160,103-C-ESPERANZA-MONTAÃ‘A 103-C-ESPERANZA-PUERTO,-27.538195543139544,-58.79064336132269,103-C-ESPERANZA-MONTAÃ‘A 103-C-ESPERANZA-PUERTO
1161,103-C-ESPERANZA-MONTAÃ‘A 103-C-ESPERANZA-PUERTO,-27.547060243938844,-58.787055068513055,103-C-ESPERANZA-MONTAÃ‘A 103-C-ESPERANZA-PUERTO
1162,105-B 108-A-B,-27.4709934667442,-58.81259405708301,105-B 108-A-B
1163,105-B 108-A-B,-27.46861183284425,-58.81205585508202,105-B 108-A-B
1164,105-B,-27.450710015442144,-58.78348823351641,105-B
1165,105-B,-27.46537809454215,-58.78903789162777,105-B
1166,105-B,-27.463510103642086,-58.78784632022517,105-B
1167,106-B,-27.499669298641013,-58.7909410865281,106-B
1168,104-C,-27.46662691434502,-58.81948012579988,104-C
1169,104-A,-27.48444281714685,-58.845842720060354,104-A
1170,104-A 104-B,-27.493367086024875,-58.84108969947,104-A 104-B
1171,104-A,-27.491428063715105,-58.838024760652445,104-A
1172,104-A,-27.48874223054616,-58.840231119646525,104-A
1173,104-A,-27.48846914814637,-58.8423146093515,104-A
1174,104-A,-27.487934718046628,-58.84476388525738,104-A
1175,109-B-YECOHA 109-A 103-A,-27.50829630570577,-58.81590293900257,109-B-YECOHA 109-A 103-A
1176,103-A,-27.50650826104416,-58.82617382981102,103-A
1177,103-A 104-C,-27.50585667814247,-58.82611140590566,103-A 104-C
1178,103-A 104-C,-27.503993522444222,-58.8259963849109,103-A 104-C
1179,103-A 104-C,-27.503526650444435,-58.827904106115504,103-A 104-C
1180,103-A 104-C,-27.503406789244504,-58.82877800331761,103-A 104-C
1181,103-A 104-C,-27.503203109044687,-58.83037358242141,103-A 104-C
1182,106-A,-27.49062866174025,-58.77968704040248,106-A
1183,106-A,-27.494596654639956,-58.77811920539825,106-A
1184,106-A,-27.49633179243983,-58.77731110609613,106-A
1185,106-A,-27.50045920923948,-58.7755437817914,106-A
1186,106-A,-27.50164885273973,-58.77870551949879,106-A
1187,106-A,-27.50376838453975,-58.77957044810058,106-A
1188,106-A,-27.50347049173976,-58.779653009900805,106-A
1189,106-A,-27.504729285939742,-58.7798870326012,106-A
1190,106-A,-27.50611238373973,-58.780140669001646,106-A
1191,106-A,-27.506053961939827,-58.78116552430408,106-A
1192,106-A,-27.505822872839975,-58.782736209107846,106-A
1193,106-A,-27.505635788740097,-58.78391470471068,106-A
1194,106-A,-27.505186434940462,-58.787339801818845,106-A
1195,102-B,-27.4902426750424,-58.80125501835376,102-B
1196,102-B,-27.48958293544252,-58.802371571756495,102-B
1197,102-B 108-A-B 110-B,-27.489399287943044,-58.807879907069605,102-B 108-A-B 110-B
1198,102-B,-27.470323454945415,-58.83077468460886,102-B
1199,102-B 108-A-B 110-B,-27.49100339036596,-58.80567714920171,102-B 108-A-B 110-B
1200,102-B,-27.492728244642468,-58.8029177365574,102-B
1201,102-B,-27.492817428042255,-58.80113037945314,102-B
1202,102-B,-27.492717328981072,-58.79962207038411,102-B
1203,103-B,-27.52218610804019,-58.7910393224256,103-B
1204,103-B,-27.52071567074004,-58.78907016192108,103-B
1205,103-B,-27.521762235240008,-58.78897838002072,103-B
1206,103-B,-27.52290804134004,-58.78972948242238,103-B
1207,103-B 103-C-ESPERANZA-MONTAÃ‘A,-27.523111553940254,-58.792121677628046,103-B 103-C-ESPERANZA-MONTAÃ‘A
1208,103-B 103-C-ESPERANZA-MONTAÃ‘A,-27.523769198140425,-58.79419862933291,103-B 103-C-ESPERANZA-MONTAÃ‘A
1209,103-B,-27.51774071037787,-58.79059884107357,103-B
1210,103-B,-27.522814904168992,-58.78882135514069,103-B
1211,103-B,-27.525052138773425,-58.79635022322012,103-B
1212,103-B 103-C-ESPERANZA-MONTAÃ‘A,-27.524325330999694,-58.794922719711565,103-B 103-C-ESPERANZA-MONTAÃ‘A
1213,103-B 103-C-ESPERANZA-MONTAÃ‘A,-27.52390984037631,-58.79410628066184,103-B 103-C-ESPERANZA-MONTAÃ‘A
1214,103-C-ESPERANZA-MONTAÃ‘A 103-C-ESPERANZA-PUERTO,-27.53918501557324,-58.79055488764645,103-C-ESPERANZA-MONTAÃ‘A 103-C-ESPERANZA-PUERTO
1215,103-C-ESPERANZA-MONTAÃ‘A 103-C-ESPERANZA-PUERTO,-27.543340668706698,-58.790050381227374,103-C-ESPERANZA-MONTAÃ‘A 103-C-ESPERANZA-PUERTO
1216,103-C-ESPERANZA-MONTAÃ‘A 103-C-ESPERANZA-PUERTO,-27.546113433743383,-58.79057369511102,103-C-ESPERANZA-MONTAÃ‘A 103-C-ESPERANZA-PUERTO
1217,103-D,-27.531893579647164,-58.787575251534015,103-D
1218,103-D,-27.53206755729912,-58.787771034315966,103-D
1219,104-A 110-A 104-B 110-B,-27.488258021153523,-58.85177722633524,104-A 110-A 104-B 110-B
1220,104-A 104-B 110-B,-27.49016713217061,-58.85167321900811,104-A 104-B 110-B
1221,104-A,-27.491840754784423,-58.849732726458335,104-A
1222,104-A 104-B 110-B,-27.492247509822487,-58.84755297590371,104-A 104-B 110-B
1223,104-A 104-D 104-C 108-A-B,-27.46272707230981,-58.82743812347167,104-A 104-D 104-C 108-A-B
1224,109-A 109-B-YECOHA,-27.467464811942616,-58.814214563704574,109-A 109-B-YECOHA
1225,109-A 109-B-YECOHA 103-A,-27.50792853787384,-58.81313604729189,109-A 109-B-YECOHA 103-A
1226,103-A,-27.501066313016445,-58.83120482744281,103-A
1227,110-B 104-A,-27.49327637846031,-58.839797220134656,110-B 104-A
1228,110-B,-27.492988698148952,-58.83782744327728,110-B
1229,110-B,-27.49352534759431,-58.83379661073997,110-B
1230,110-B 104-D,-27.4947541339922,-58.82497703554746,110-B 104-D
1231,110-B,-27.50110773514637,-58.82149246359685,110-B
1232,110-B,-27.49927372128473,-58.81746386568125,110-B
1233,110-B,-27.4906561556796,-58.8200119347323,110-B
1234,101-B 101-C 104-B,-27.469479072053318,-58.839454911880125,101-B 101-C 104-B
1235,101-B 101-C 110-A,-27.47415000915852,-58.81369114942836,101-B 101-C 110-A
1236,110-A,-27.491719045646462,-58.82985550875157,110-A
1237,110-A,-27.49186125342141,-58.828036421527045,110-A
1238,110-A,-27.4922646186676,-58.82645956460254,110-A
1239,110-A,-27.490604757389008,-58.82605553636275,110-A
1240,110-A,-27.48899028463892,-58.82561115451176,110-A
1241,110-A,-27.488951273514022,-58.82580528685212,110-A
1242,110-A,-27.48471338292317,-58.825177948487216,110-A
1243,110-A,-27.48450315084932,-58.82495228467689,110-A
1244,110-A,-27.48286668623121,-58.824912680826095,110-A
1245,110-A,-27.48265608737875,-58.81924043296346,110-A
1246,110-A,-27.482523796265323,-58.81921905478996,110-A
1247,110-A,-27.482700757099543,-58.81791818983984,110-A
1248,105-A 101-B 101-C,-27.471522669583813,-58.81102725083998,105-A 101-B 101-C
1249,105-A 101-B 101-C,-27.471979178644204,-58.81307735758405,105-A 101-B 101-C
1250,105-A 105-B 101-B 101-C,-27.470332637545955,-58.83055287132572,105-A 105-B 101-B 101-C
1251,105-A 105-B 101-B 101-C,-27.47011328314621,-58.83314564543191,105-A 105-B 101-B 101-C
1252,105-A 105-B 101-B 101-C,-27.469656804646608,-58.83744824404216,105-A 105-B 101-B 101-C
1253,105-A 105-C-250VIV 105-C-PERICHON 103-A 103-B 103-C-ESPERANZA-PUERTO 103-D 105-B 101-B 101-C 110-A,-27.46277160833246,-58.838963169683225,105-A 105-C-250VIV 105-C-PERICHON 103-A 103-B 103-C-ESPERANZA-PUERTO 103-D 105-B 101-B 101-C 110-A
1254,109-A 109-B-YECOHA 102-A 102-B 102-C 106-A 106-B 106-C 101-B 101-C,-27.468611045668496,-58.83059179485827,109-A 109-B-YECOHA 102-A 102-B 102-C 106-A 106-B 106-C 101-B 101-C
1255,101-B 101-C,-27.4663334305379,-58.84047645822762,101-B 101-C
1256,101-B 101-C,-27.47645083458104,-58.78965733935743,101-B 101-C
